[{"Name":"Abelvattnet Aut","Id":"154860","Latitude":65.53,"Longitude":14.97,"Altitude":665.0},{"Name":"Abisko","Id":"188800","Latitude":68.3557,"Longitude":18.8206,"Altitude":388.0},{"Name":"Abisko Aut","Id":"188790","Latitude":68.3555,"Longitude":18.8211,"Altitude":388.0},{"Name":"Abraur","Id":"158990","Latitude":65.9867,"Longitude":18.9236,"Altitude":370.0},{"Name":"Adelsnäs","Id":"85600","Latitude":58.1998177,"Longitude":15.9801817,"Altitude":97.0},{"Name":"Adelsö A","Id":"97280","Latitude":59.3582,"Longitude":17.5244,"Altitude":6.0},{"Name":"Adolfsfors","Id":"92480","Latitude":59.8,"Longitude":12.2333,"Altitude":125.0},{"Name":"Agö","Id":"117330","Latitude":61.55,"Longitude":17.4666,"Altitude":20.0},{"Name":"Aktse","Id":"178740","Latitude":67.1498,"Longitude":18.3061,"Altitude":530.0},{"Name":"Allgunnen","Id":"75040","Latitude":57.0666,"Longitude":15.9681,"Altitude":115.0},{"Name":"Almagrundet A","Id":"99090","Latitude":59.1547,"Longitude":19.1298,"Altitude":3.0},{"Name":"Almdalen","Id":"134590","Latitude":63.9967,"Longitude":14.6701,"Altitude":615.0},{"Name":"Alnarp","Id":"53640","Latitude":55.65,"Longitude":13.0833,"Altitude":10.0},{"Name":"Alnarp Fruktavdelning","Id":"53390","Latitude":55.6571,"Longitude":13.0923,"Altitude":10.0},{"Name":"Aluokta","Id":"178790","Latitude":67.3094,"Longitude":18.9011,"Altitude":385.0},{"Name":"Alvhem","Id":"82000","Latitude":58.0067,"Longitude":12.1454,"Altitude":5.0},{"Name":"Ambjörnarp","Id":"73250","Latitude":57.4166,"Longitude":13.2833,"Altitude":220.0},{"Name":"Ammarnäs","Id":"156990","Latitude":65.9744,"Longitude":16.2283,"Altitude":440.0},{"Name":"Aneboda II","Id":"74600","Latitude":57.1166763,"Longitude":14.5638952,"Altitude":195.0},{"Name":"Aneby","Id":"74510","Latitude":57.8232,"Longitude":14.8913,"Altitude":240.0},{"Name":"Ankarvattnet","Id":"144650","Latitude":64.8666,"Longitude":14.25,"Altitude":460.0},{"Name":"Arboga","Id":"95230","Latitude":59.3833,"Longitude":15.8333,"Altitude":50.0},{"Name":"Arjeplog A","Id":"167710","Latitude":66.0526,"Longitude":17.8434,"Altitude":431.0},{"Name":"Arlanda","Id":"97390","Latitude":59.66,"Longitude":17.9208,"Altitude":26.0},{"Name":"Arlöv sockerbruk","Id":"53770","Latitude":55.6333,"Longitude":13.0667,"Altitude":3.0},{"Name":"Arvidsjaur A","Id":"159880","Latitude":65.5953,"Longitude":19.2682,"Altitude":382.0},{"Name":"Arvika","Id":"92400","Latitude":59.6658,"Longitude":12.591,"Altitude":77.0},{"Name":"Arvika A","Id":"92410","Latitude":59.6747,"Longitude":12.6381,"Altitude":66.0},{"Name":"Aske","Id":"97630","Latitude":59.6166,"Longitude":17.65,"Altitude":15.0},{"Name":"Askersund","Id":"84660","Latitude":58.88,"Longitude":14.9,"Altitude":100.0},{"Name":"Asphyttan","Id":"94370","Latitude":59.6112,"Longitude":14.1859,"Altitude":130.0},{"Name":"Avesta","Id":"106070","Latitude":60.1419,"Longitude":16.1747,"Altitude":100.0},{"Name":"Axstål Mo","Id":"84340","Latitude":58.5719,"Longitude":14.5722,"Altitude":91.0},{"Name":"Backa","Id":"105550","Latitude":60.923,"Longitude":15.1145,"Altitude":230.0},{"Name":"Balsjö","Id":"139570","Latitude":63.925,"Longitude":19.0611,"Altitude":195.0},{"Name":"Barkarby","Id":"97260","Latitude":59.4166,"Longitude":17.8833,"Altitude":17.0},{"Name":"Barkåkra","Id":"62180","Latitude":56.2979,"Longitude":12.8441,"Altitude":18.0},{"Name":"Bastorp","Id":"82540","Latitude":58.904,"Longitude":12.038,"Altitude":150.0},{"Name":"Beckomberga","Id":"97190","Latitude":59.3658,"Longitude":17.8974,"Altitude":15.0},{"Name":"Berg","Id":"74080","Latitude":57.121,"Longitude":14.6931,"Altitude":250.0},{"Name":"Berga","Id":"98610","Latitude":59.0833,"Longitude":18.1166,"Altitude":15.0},{"Name":"Berga Mo","Id":"98040","Latitude":59.0688,"Longitude":18.1184,"Altitude":4.0},{"Name":"Bergsjö","Id":"117570","Latitude":61.9488,"Longitude":17.0669,"Altitude":55.0},{"Name":"Bie","Id":"96610","Latitude":59.0830421,"Longitude":16.2134514,"Altitude":21.0},{"Name":"Bispgården","Id":"136020","Latitude":63.0509,"Longitude":16.5358,"Altitude":190.0},{"Name":"Bispgården","Id":"136010","Latitude":63.0335,"Longitude":16.5536,"Altitude":165.0},{"Name":"Bjurfors","Id":"106080","Latitude":60.1316,"Longitude":16.1282,"Altitude":125.0},{"Name":"Bjuråker","Id":"116650","Latitude":61.85,"Longitude":16.5833,"Altitude":66.0},{"Name":"Bjuröklubb","Id":"151290","Latitude":64.4806,"Longitude":21.5787,"Altitude":36.0},{"Name":"Bjuröklubb A","Id":"151280","Latitude":64.4812,"Longitude":21.5791,"Altitude":40.0},{"Name":"Bjärka-Säby","Id":"85160","Latitude":58.2662,"Longitude":15.7431,"Altitude":100.0},{"Name":"Björka","Id":"53650","Latitude":55.7,"Longitude":13.6333,"Altitude":32.0},{"Name":"Björkede","Id":"142030","Latitude":64.0432,"Longitude":12.9414,"Altitude":451.0},{"Name":"Björkfors","Id":"163680","Latitude":65.9166,"Longitude":23.4666,"Altitude":10.0},{"Name":"Björklinge","Id":"107030","Latitude":60.0514,"Longitude":17.5667,"Altitude":31.0},{"Name":"Björkudden","Id":"178820","Latitude":67.3956,"Longitude":18.7156,"Altitude":376.0},{"Name":"Björnegården","Id":"83640","Latitude":58.5166,"Longitude":13.0666,"Altitude":75.0},{"Name":"Blaikliden","Id":"155710","Latitude":65.0464,"Longitude":15.7486,"Altitude":520.0},{"Name":"Blankaström","Id":"75140","Latitude":57.2166,"Longitude":15.9166,"Altitude":80.0},{"Name":"Blomskog","Id":"92170","Latitude":59.2891,"Longitude":12.0542,"Altitude":110.0},{"Name":"Blomskog A","Id":"92130","Latitude":59.2217,"Longitude":12.078,"Altitude":170.0},{"Name":"Blåhammaren A","Id":"132110","Latitude":63.1864,"Longitude":12.1761,"Altitude":1090.0},{"Name":"Bobbenarve","Id":"78050","Latitude":57.0333,"Longitude":18.2833,"Altitude":8.0},{"Name":"Boden Mo","Id":"161940","Latitude":65.8151,"Longitude":21.6396,"Altitude":25.0},{"Name":"Bodträskfors","Id":"170630","Latitude":66.0792,"Longitude":20.925,"Altitude":30.0},{"Name":"Boksjö","Id":"155900","Latitude":65.6772,"Longitude":15.8245,"Altitude":475.0},{"Name":"Bollebygd","Id":"72400","Latitude":57.661,"Longitude":12.5521,"Altitude":65.0},{"Name":"Bollerup","Id":"54300","Latitude":55.4907,"Longitude":14.0476,"Altitude":55.0},{"Name":"Borgunda","Id":"83170","Latitude":58.288,"Longitude":13.7995,"Altitude":181.0},{"Name":"Borlänge","Id":"105310","Latitude":60.502,"Longitude":15.4606,"Altitude":120.0},{"Name":"Borlänge Aut","Id":"105280","Latitude":60.4889,"Longitude":15.4324,"Altitude":140.0},{"Name":"Borlänge Flygplats","Id":"105260","Latitude":60.4294,"Longitude":15.5079,"Altitude":152.0},{"Name":"Borås","Id":"72450","Latitude":57.7611,"Longitude":12.9493,"Altitude":135.0},{"Name":"Brattmon V","Id":"102390","Latitude":60.75686,"Longitude":12.77226,"Altitude":199.0},{"Name":"Bredbyn","Id":"138270","Latitude":63.4608,"Longitude":18.0592,"Altitude":85.0},{"Name":"Bredviken","Id":"91130","Latitude":59.2184,"Longitude":11.9858,"Altitude":100.0},{"Name":"Broddbo","Id":"96640","Latitude":59.9829063,"Longitude":16.4634,"Altitude":31.0},{"Name":"Brovallen","Id":"106040","Latitude":60.0991,"Longitude":16.3062,"Altitude":100.0},{"Name":"Brunsberg","Id":"92370","Latitude":59.6166,"Longitude":12.9833,"Altitude":70.0},{"Name":"Brämö","Id":"127620","Latitude":62.1299,"Longitude":17.4498,"Altitude":17.0},{"Name":"Brämön A","Id":"127130","Latitude":62.2207,"Longitude":17.7426,"Altitude":17.0},{"Name":"Brännbergs försöksgård","Id":"161660","Latitude":65.8,"Longitude":21.2666,"Altitude":88.0},{"Name":"Brännåkersfjället V","Id":"145450","Latitude":64.7507,"Longitude":15.8307,"Altitude":630.0},{"Name":"Brålanda","Id":"82640","Latitude":58.5666,"Longitude":12.3666,"Altitude":65.0},{"Name":"Buresjön A","Id":"157870","Latitude":65.5592,"Longitude":17.86,"Altitude":393.0},{"Name":"Buttle","Id":"78240","Latitude":57.4034,"Longitude":18.5297,"Altitude":45.0},{"Name":"Bydalen V","Id":"133030","Latitude":63.044,"Longitude":13.8907,"Altitude":1000.0},{"Name":"Bygdsiljum","Id":"150630","Latitude":64.35,"Longitude":20.5,"Altitude":131.0},{"Name":"Bäckefors","Id":"82490","Latitude":58.8055,"Longitude":12.1581,"Altitude":150.0},{"Name":"Bällefors","Id":"84620","Latitude":58.5833,"Longitude":14.1166,"Altitude":90.0},{"Name":"Bölestrand","Id":"136610","Latitude":63.1333,"Longitude":16.15,"Altitude":220.0},{"Name":"Börtnan A","Id":"123460","Latitude":62.7557,"Longitude":13.8456,"Altitude":467.0},{"Name":"Daglösen A","Id":"94390","Latitude":59.6616,"Longitude":14.1831,"Altitude":133.0},{"Name":"Dalsjöfors","Id":"73430","Latitude":57.722,"Longitude":13.1238,"Altitude":257.0},{"Name":"Dalstuga","Id":"115040","Latitude":61.0666,"Longitude":15.7,"Altitude":240.0},{"Name":"Danasjö","Id":"156850","Latitude":65.5374,"Longitude":16.5393,"Altitude":652.0},{"Name":"Dannemora","Id":"107120","Latitude":60.2026,"Longitude":17.9049,"Altitude":41.0},{"Name":"Degerfors","Id":"94140","Latitude":59.2333,"Longitude":14.45,"Altitude":85.0},{"Name":"Delsbo","Id":"116480","Latitude":61.7854,"Longitude":16.5505,"Altitude":88.0},{"Name":"Delsbo A","Id":"116490","Latitude":61.8271,"Longitude":16.5418,"Altitude":70.0},{"Name":"Dikanäs","Id":"156770","Latitude":65.2337,"Longitude":16.0018,"Altitude":484.0},{"Name":"Dikanäs Skansnäs","Id":"156790","Latitude":65.3235,"Longitude":16.0353,"Altitude":525.0},{"Name":"Dingle","Id":"81320","Latitude":58.5289,"Longitude":11.5724,"Altitude":20.0},{"Name":"Djurskog","Id":"91370","Latitude":59.6072,"Longitude":11.9321,"Altitude":280.0},{"Name":"Domnarvet","Id":"105640","Latitude":60.5,"Longitude":15.45,"Altitude":128.0},{"Name":"Drageryd","Id":"75120","Latitude":57.2001,"Longitude":15.9666,"Altitude":77.0},{"Name":"Dravagen A","Id":"123060","Latitude":62.0943,"Longitude":13.6115,"Altitude":566.0},{"Name":"Dunker","Id":"96120","Latitude":59.1469,"Longitude":16.8536,"Altitude":35.0},{"Name":"Duved","Id":"132240","Latitude":63.4,"Longitude":12.9333,"Altitude":385.0},{"Name":"Dönje","Id":"116240","Latitude":61.395,"Longitude":16.4145,"Altitude":85.0},{"Name":"Edebäck","Id":"103050","Latitude":60.0666,"Longitude":13.55,"Altitude":155.0},{"Name":"Edevik","Id":"132590","Latitude":63.9812,"Longitude":12.8709,"Altitude":425.0},{"Name":"Edsbyn","Id":"115230","Latitude":61.3784,"Longitude":15.8352,"Altitude":161.0},{"Name":"Edsbyn A","Id":"115220","Latitude":61.3613,"Longitude":15.7175,"Altitude":184.0},{"Name":"Eftra-Broen V","Id":"62530","Latitude":56.86254,"Longitude":12.6628,"Altitude":10.0},{"Name":"Eggegrund A","Id":"107440","Latitude":60.7304,"Longitude":17.5612,"Altitude":5.0},{"Name":"Ekebo","Id":"53710","Latitude":55.95,"Longitude":13.1333,"Altitude":80.0},{"Name":"Ekefors","Id":"64330","Latitude":56.5546,"Longitude":14.7571,"Altitude":145.0},{"Name":"Ekerum","Id":"66470","Latitude":56.7849,"Longitude":16.5812,"Altitude":40.0},{"Name":"Eklången","Id":"96140","Latitude":59.2358,"Longitude":16.7429,"Altitude":35.0},{"Name":"Emmaboda","Id":"65640","Latitude":56.6333,"Longitude":15.55,"Altitude":150.0},{"Name":"Enköping Mo","Id":"97370","Latitude":59.6557,"Longitude":17.1121,"Altitude":26.0},{"Name":"Erikstad","Id":"82380","Latitude":58.6336,"Longitude":12.4129,"Altitude":65.0},{"Name":"Erikstad-Bergarud V","Id":"82350","Latitude":58.60033,"Longitude":12.41302,"Altitude":59.0},{"Name":"Eskilstuna","Id":"96230","Latitude":59.3867,"Longitude":16.4647,"Altitude":8.0},{"Name":"Eskilstuna A","Id":"96190","Latitude":59.3832,"Longitude":16.4549,"Altitude":15.0},{"Name":"Eskilstuna Aut","Id":"96220","Latitude":59.3868,"Longitude":16.4648,"Altitude":9.0},{"Name":"Esrange","Id":"181970","Latitude":67.8911,"Longitude":21.0846,"Altitude":328.0},{"Name":"Exens flygplats","Id":"63470","Latitude":56.6778,"Longitude":13.7792,"Altitude":127.0},{"Name":"Fagered","Id":"72120","Latitude":57.1978,"Longitude":12.8129,"Altitude":100.0},{"Name":"Fagerviken","Id":"107330","Latitude":60.542,"Longitude":17.7478,"Altitude":5.0},{"Name":"Falerum","Id":"86090","Latitude":58.1425,"Longitude":16.2102,"Altitude":80.0},{"Name":"Falkenberg","Id":"62520","Latitude":56.8994,"Longitude":12.4798,"Altitude":5.0},{"Name":"Falköping","Id":"83090","Latitude":58.1584,"Longitude":13.5397,"Altitude":205.0},{"Name":"Falsterbo","Id":"52230","Latitude":55.3836,"Longitude":12.8203,"Altitude":5.0},{"Name":"Falsterbo A","Id":"52240","Latitude":55.3838,"Longitude":12.819,"Altitude":5.0},{"Name":"Falun-Lugnet","Id":"105370","Latitude":60.619,"Longitude":15.6603,"Altitude":140.0},{"Name":"Farsta","Id":"98620","Latitude":59.3165,"Longitude":18.3664,"Altitude":6.0},{"Name":"Farstugrunden Aut","Id":"162800","Latitude":65.33,"Longitude":22.75,"Altitude":1.0},{"Name":"Fellingsbro-Finnåker","Id":"95320","Latitude":59.5345,"Longitude":15.5857,"Altitude":51.0},{"Name":"Filipstad","Id":"94430","Latitude":59.7166,"Longitude":14.1666,"Altitude":141.0},{"Name":"Films Kyrkby","Id":"107130","Latitude":60.2357,"Longitude":17.9072,"Altitude":39.0},{"Name":"Films Kyrkby A","Id":"107140","Latitude":60.2363,"Longitude":17.9078,"Altitude":33.0},{"Name":"Finneby","Id":"125020","Latitude":62.0424,"Longitude":15.4655,"Altitude":259.0},{"Name":"Finngrundets Fyrskepp","Id":"118610","Latitude":61.0666,"Longitude":18.6833,"Altitude":5.0},{"Name":"Finspång","Id":"85410","Latitude":58.7104,"Longitude":15.8215,"Altitude":41.0},{"Name":"Fjällnäs","Id":"122360","Latitude":62.5772,"Longitude":12.2223,"Altitude":780.0},{"Name":"Flahult","Id":"74420","Latitude":57.6898,"Longitude":14.1455,"Altitude":224.0},{"Name":"Flaten","Id":"104390","Latitude":60.651,"Longitude":14.4277,"Altitude":296.0},{"Name":"Flatruet V","Id":"122430","Latitude":62.72909,"Longitude":12.7264,"Altitude":932.0},{"Name":"Floda A","Id":"96040","Latitude":59.0561,"Longitude":16.3975,"Altitude":19.0},{"Name":"Flodafors","Id":"96600","Latitude":59.0666,"Longitude":16.3666,"Altitude":50.0},{"Name":"Flötningen","Id":"112510","Latitude":61.8526,"Longitude":12.2689,"Altitude":670.0},{"Name":"Folkärna","Id":"106100","Latitude":60.169,"Longitude":16.3125,"Altitude":68.0},{"Name":"Forse","Id":"137080","Latitude":63.1466,"Longitude":17.0262,"Altitude":120.0},{"Name":"Forshult","Id":"93580","Latitude":59.9445,"Longitude":13.5335,"Altitude":110.0},{"Name":"Fredrika","Id":"148050","Latitude":64.0763,"Longitude":18.419,"Altitude":300.0},{"Name":"Fredrika A","Id":"148040","Latitude":64.0753,"Longitude":18.3656,"Altitude":327.0},{"Name":"Fredriksberg","Id":"104090","Latitude":60.1418,"Longitude":14.2145,"Altitude":305.0},{"Name":"Fränsta","Id":"126630","Latitude":62.5,"Longitude":16.1833,"Altitude":110.0},{"Name":"Fränsta II","Id":"126300","Latitude":62.5165,"Longitude":16.2084,"Altitude":110.0},{"Name":"Fröslida","Id":"63530","Latitude":56.8666,"Longitude":13.0666,"Altitude":70.0},{"Name":"Frösön","Id":"134110","Latitude":63.1974,"Longitude":14.4863,"Altitude":376.0},{"Name":"Frösön D","Id":"134130","Latitude":63.1947,"Longitude":14.4898,"Altitude":375.0},{"Name":"Furuögrund","Id":"151550","Latitude":64.9112,"Longitude":21.2263,"Altitude":10.0},{"Name":"Fägerhult","Id":"73390","Latitude":57.6468,"Longitude":13.2369,"Altitude":170.0},{"Name":"Fägre","Id":"84390","Latitude":58.6493,"Longitude":14.1265,"Altitude":95.0},{"Name":"Fällfors","Id":"160740","Latitude":65.1317,"Longitude":20.7891,"Altitude":195.0},{"Name":"Fällfors Mo","Id":"160750","Latitude":65.1089,"Longitude":20.7652,"Altitude":195.0},{"Name":"Fårö","Id":"79580","Latitude":57.8987,"Longitude":19.1592,"Altitude":8.0},{"Name":"Fårösund Ar A","Id":"78550","Latitude":57.9167,"Longitude":18.9568,"Altitude":13.0},{"Name":"Föllinge A","Id":"134410","Latitude":63.677,"Longitude":14.6079,"Altitude":362.0},{"Name":"Föllinge-Vägskälet","Id":"134460","Latitude":63.7606,"Longitude":14.4323,"Altitude":475.0},{"Name":"Gammalkroppa","Id":"94410","Latitude":59.6833,"Longitude":14.3166,"Altitude":200.0},{"Name":"Garn","Id":"82030","Latitude":58.0492,"Longitude":12.1563,"Altitude":15.0},{"Name":"Gendalen","Id":"82110","Latitude":58.1589,"Longitude":12.647,"Altitude":90.0},{"Name":"Genevad","Id":"63340","Latitude":56.5684,"Longitude":13.0338,"Altitude":20.0},{"Name":"Gielas A","Id":"155790","Latitude":65.328,"Longitude":15.0686,"Altitude":577.0},{"Name":"Gislaved","Id":"73170","Latitude":57.2847,"Longitude":13.5324,"Altitude":165.0},{"Name":"Gisselås","Id":"135640","Latitude":63.7,"Longitude":15.3666,"Altitude":320.0},{"Name":"Gladhammar A","Id":"76420","Latitude":57.7071,"Longitude":16.4585,"Altitude":35.0},{"Name":"Glommen","Id":"62550","Latitude":56.9303,"Longitude":12.3579,"Altitude":6.0},{"Name":"Glommersträsk","Id":"159770","Latitude":65.278,"Longitude":19.6673,"Altitude":395.0},{"Name":"Godegård","Id":"85450","Latitude":58.7936,"Longitude":15.1694,"Altitude":130.0},{"Name":"Gotska Sandön","Id":"89240","Latitude":58.3928,"Longitude":19.197,"Altitude":12.0},{"Name":"Gotska Sandön A","Id":"89230","Latitude":58.3943,"Longitude":19.1975,"Altitude":16.0},{"Name":"Gran","Id":"127600","Latitude":62.0166,"Longitude":17.6333,"Altitude":20.0},{"Name":"Grimeton","Id":"72070","Latitude":57.1088,"Longitude":12.394,"Altitude":35.0},{"Name":"Grundforsen","Id":"112170","Latitude":61.2797,"Longitude":12.8568,"Altitude":412.0},{"Name":"Grundkallen","Id":"108300","Latitude":60.5,"Longitude":18.8666,"Altitude":23.0},{"Name":"Gränna","Id":"84610","Latitude":58.0333,"Longitude":14.4666,"Altitude":130.0},{"Name":"Gråda Kraftverk","Id":"105360","Latitude":60.6046,"Longitude":15.0146,"Altitude":155.0},{"Name":"Grönbo","Id":"95380","Latitude":59.6396,"Longitude":15.418,"Altitude":85.0},{"Name":"Grönskär","Id":"99150","Latitude":59.2792,"Longitude":19.0306,"Altitude":9.0},{"Name":"Grövelsjön","Id":"122610","Latitude":62.0991,"Longitude":12.3153,"Altitude":815.0},{"Name":"Gubbhögen A","Id":"145130","Latitude":64.2182,"Longitude":15.5561,"Altitude":310.0},{"Name":"Gunnarn","Id":"147570","Latitude":65.0074,"Longitude":17.7085,"Altitude":280.0},{"Name":"Gunnarn A","Id":"147560","Latitude":65.0106,"Longitude":17.7034,"Altitude":251.0},{"Name":"Gunnebo","Id":"76430","Latitude":57.7166,"Longitude":16.5333,"Altitude":18.0},{"Name":"Gustaf Dalen A","Id":"87360","Latitude":58.5929,"Longitude":17.4704,"Altitude":25.0},{"Name":"Gustavsberg","Id":"98180","Latitude":59.3226,"Longitude":18.3725,"Altitude":10.0},{"Name":"Gustavsfors","Id":"103090","Latitude":60.1514,"Longitude":13.7975,"Altitude":190.0},{"Name":"Gustavsfors A","Id":"103100","Latitude":60.1538,"Longitude":13.8019,"Altitude":187.0},{"Name":"Gustavsnäs D","Id":"125490","Latitude":62.8108,"Longitude":15.9333,"Altitude":300.0},{"Name":"Gäddede","Id":"144300","Latitude":64.5037,"Longitude":14.1596,"Altitude":328.0},{"Name":"Gäddede A","Id":"144310","Latitude":64.5057,"Longitude":14.2238,"Altitude":550.0},{"Name":"Gällivare","Id":"180730","Latitude":67.1429,"Longitude":20.6586,"Altitude":365.0},{"Name":"Gällivare A","Id":"180760","Latitude":67.1421,"Longitude":20.6455,"Altitude":359.0},{"Name":"Gällivare Flygplats","Id":"180740","Latitude":67.1358,"Longitude":20.8144,"Altitude":312.0},{"Name":"Gärsnäs","Id":"54650","Latitude":55.55,"Longitude":14.1833,"Altitude":45.0},{"Name":"Gästrike-Hammarby IV","Id":"106630","Latitude":60.55,"Longitude":16.5833,"Altitude":70.0},{"Name":"Gävle","Id":"107400","Latitude":60.6537,"Longitude":17.1693,"Altitude":16.0},{"Name":"Gävle A","Id":"107420","Latitude":60.7166,"Longitude":17.1641,"Altitude":16.0},{"Name":"Gårdsjö A","Id":"84520","Latitude":58.8772,"Longitude":14.3903,"Altitude":211.0},{"Name":"Gödeberg","Id":"74350","Latitude":57.5666,"Longitude":14.6333,"Altitude":350.0},{"Name":"Göteborg A","Id":"71420","Latitude":57.71567,"Longitude":11.9925,"Altitude":5.0},{"Name":"Hagshult Mo","Id":"74180","Latitude":57.2926,"Longitude":14.1399,"Altitude":169.0},{"Name":"Hallands Väderö A","Id":"62260","Latitude":56.4495,"Longitude":12.547,"Altitude":10.0},{"Name":"Hallands väderö","Id":"62630","Latitude":56.45,"Longitude":12.55,"Altitude":12.0},{"Name":"Hallhåxåsen A","Id":"135460","Latitude":63.7695,"Longitude":15.331,"Altitude":375.0},{"Name":"Hallviken","Id":"135440","Latitude":63.73,"Longitude":15.5,"Altitude":337.0},{"Name":"Halmstad","Id":"62400","Latitude":56.6737,"Longitude":12.9242,"Altitude":24.0},{"Name":"Halmstad","Id":"62390","Latitude":56.675,"Longitude":12.9247,"Altitude":25.0},{"Name":"Halmstad Flygflottilj","Id":"62410","Latitude":56.6833,"Longitude":12.8333,"Altitude":30.0},{"Name":"Hammenhög","Id":"54310","Latitude":55.5049,"Longitude":14.1589,"Altitude":50.0},{"Name":"Hamra","Id":"114400","Latitude":61.6577,"Longitude":14.9943,"Altitude":440.0},{"Name":"Hamra A","Id":"114410","Latitude":61.6606,"Longitude":14.9948,"Altitude":454.0},{"Name":"Hanö A","Id":"64020","Latitude":56.0131,"Longitude":14.8488,"Altitude":55.0},{"Name":"Haparanda","Id":"163950","Latitude":65.8367,"Longitude":24.113,"Altitude":5.0},{"Name":"Haparanda A","Id":"163960","Latitude":65.8249,"Longitude":24.1162,"Altitude":16.0},{"Name":"Harads","Id":"170670","Latitude":66.0833,"Longitude":20.9666,"Altitude":35.0},{"Name":"Haraholmen","Id":"161780","Latitude":65.2391,"Longitude":21.6317,"Altitude":4.0},{"Name":"Harrträsk","Id":"180710","Latitude":67.0333,"Longitude":20.7,"Altitude":410.0},{"Name":"Harstena","Id":"87150","Latitude":58.2502,"Longitude":17.0095,"Altitude":5.0},{"Name":"Harstena A","Id":"87140","Latitude":58.2505,"Longitude":17.0106,"Altitude":14.0},{"Name":"Hasslarp","Id":"62080","Latitude":56.1333,"Longitude":12.8166,"Altitude":10.0},{"Name":"Hede","Id":"123250","Latitude":62.4107,"Longitude":13.5184,"Altitude":430.0},{"Name":"Hedenstorp","Id":"74410","Latitude":57.7653,"Longitude":14.1111,"Altitude":210.0},{"Name":"Hedeviken","Id":"123340","Latitude":62.4112,"Longitude":13.6748,"Altitude":410.0},{"Name":"Hednoret","Id":"161650","Latitude":65.8333,"Longitude":21.55,"Altitude":27.0},{"Name":"Helsingborg","Id":"62030","Latitude":56.0431,"Longitude":12.6906,"Altitude":5.0},{"Name":"Helsingborg A","Id":"62040","Latitude":56.0304,"Longitude":12.7653,"Altitude":43.0},{"Name":"Hemavan","Id":"155940","Latitude":65.7968,"Longitude":15.1045,"Altitude":475.0},{"Name":"Hemavan Flygplats","Id":"155970","Latitude":65.8077,"Longitude":15.0854,"Altitude":458.0},{"Name":"Hemavan-Giertevarto A","Id":"155960","Latitude":65.7832,"Longitude":15.0645,"Altitude":793.0},{"Name":"Hemling","Id":"138400","Latitude":63.6574,"Longitude":18.5318,"Altitude":190.0},{"Name":"Hemling A","Id":"138390","Latitude":63.6513,"Longitude":18.5502,"Altitude":182.0},{"Name":"Hemse","Id":"78140","Latitude":57.2438,"Longitude":18.3835,"Altitude":25.0},{"Name":"Herrberga","Id":"85210","Latitude":58.3935,"Longitude":15.2184,"Altitude":90.0},{"Name":"Herrvik","Id":"78250","Latitude":57.4208,"Longitude":18.9174,"Altitude":5.0},{"Name":"Hestra D","Id":"73230","Latitude":57.4669,"Longitude":13.6319,"Altitude":220.0},{"Name":"Hilleshög","Id":"52560","Latitude":55.925,"Longitude":12.8472,"Altitude":60.0},{"Name":"Hoburg","Id":"68550","Latitude":56.9222,"Longitude":18.1471,"Altitude":38.0},{"Name":"Hoburg A","Id":"68560","Latitude":56.9213,"Longitude":18.1541,"Altitude":39.0},{"Name":"Holma","Id":"86200","Latitude":58.3339,"Longitude":16.8157,"Altitude":5.0},{"Name":"Holmögadd A","Id":"140360","Latitude":63.5949,"Longitude":20.7565,"Altitude":6.0},{"Name":"Holmön A","Id":"140460","Latitude":63.8082,"Longitude":20.8692,"Altitude":6.0},{"Name":"Horn A","Id":"75520","Latitude":57.8863,"Longitude":15.8652,"Altitude":90.0},{"Name":"Hoting","Id":"146070","Latitude":64.1236,"Longitude":16.2149,"Altitude":240.0},{"Name":"Hoting A","Id":"146050","Latitude":64.0885,"Longitude":16.2388,"Altitude":241.0},{"Name":"Hud V","Id":"81370","Latitude":58.66076,"Longitude":11.41775,"Altitude":95.0},{"Name":"Hudiksvall","Id":"117440","Latitude":61.7167,"Longitude":17.086,"Altitude":5.0},{"Name":"Hunge","Id":"125450","Latitude":62.754,"Longitude":15.0921,"Altitude":342.0},{"Name":"Hunge A","Id":"125440","Latitude":62.7512,"Longitude":15.0876,"Altitude":343.0},{"Name":"Hunnestorp V","Id":"62250","Latitude":56.40404,"Longitude":12.94361,"Altitude":159.0},{"Name":"Husarö","Id":"98290","Latitude":59.5052,"Longitude":18.8417,"Altitude":10.0},{"Name":"Huskvarna","Id":"74480","Latitude":57.7865,"Longitude":14.2874,"Altitude":99.0},{"Name":"Huvudskär Ost A","Id":"89560","Latitude":58.9334,"Longitude":19.1833,"Altitude":4.0},{"Name":"Hällnäs Skogsskola","Id":"149710","Latitude":64.3333,"Longitude":19.5,"Altitude":175.0},{"Name":"Hällnäs-Lund","Id":"149160","Latitude":64.2684,"Longitude":19.6314,"Altitude":181.0},{"Name":"Hällum A","Id":"83190","Latitude":58.3221,"Longitude":13.0406,"Altitude":70.0},{"Name":"Härnö","Id":"128370","Latitude":62.6183,"Longitude":18.0618,"Altitude":10.0},{"Name":"Härnösand","Id":"127380","Latitude":62.628,"Longitude":17.9471,"Altitude":8.0},{"Name":"Härsnäs","Id":"85180","Latitude":58.2886,"Longitude":15.237,"Altitude":119.0},{"Name":"Hässelby","Id":"97610","Latitude":59.3727,"Longitude":17.8197,"Altitude":25.0},{"Name":"Hässleby","Id":"75380","Latitude":57.6295,"Longitude":15.5725,"Altitude":190.0},{"Name":"Hässleholm","Id":"63080","Latitude":56.1367,"Longitude":13.7445,"Altitude":50.0},{"Name":"Hästveda Mo","Id":"63160","Latitude":56.2799,"Longitude":13.9432,"Altitude":103.0},{"Name":"Hållö","Id":"81630","Latitude":58.3333,"Longitude":11.2166,"Altitude":16.0},{"Name":"Hångstad","Id":"91520","Latitude":59.8633,"Longitude":11.9746,"Altitude":130.0},{"Name":"Höganäs","Id":"62160","Latitude":56.1917,"Longitude":12.6014,"Altitude":5.0},{"Name":"Högland","Id":"145340","Latitude":64.5666,"Longitude":15.9166,"Altitude":401.0},{"Name":"Höglekardalen","Id":"133050","Latitude":63.0796,"Longitude":13.7529,"Altitude":592.0},{"Name":"Högsjö","Id":"95020","Latitude":59.0297,"Longitude":15.6858,"Altitude":69.0},{"Name":"Högstena","Id":"83610","Latitude":58.2333,"Longitude":13.7166,"Altitude":211.0},{"Name":"Högsäter","Id":"91660","Latitude":59.88,"Longitude":11.97,"Altitude":135.0},{"Name":"Högsön","Id":"162970","Latitude":65.8849,"Longitude":22.3961,"Altitude":8.0},{"Name":"Hökmarksberget V","Id":"151240","Latitude":64.43583,"Longitude":21.27997,"Altitude":92.0},{"Name":"Hököpinge","Id":"53630","Latitude":55.5,"Longitude":13.0166,"Altitude":17.0},{"Name":"Hölick","Id":"117370","Latitude":61.6239,"Longitude":17.4401,"Altitude":5.0},{"Name":"Höljes","Id":"102540","Latitude":60.9066,"Longitude":12.5843,"Altitude":230.0},{"Name":"Hörby A","Id":"53530","Latitude":55.8633,"Longitude":13.6689,"Altitude":114.0},{"Name":"Idkerberget","Id":"105230","Latitude":60.3758,"Longitude":15.231,"Altitude":260.0},{"Name":"Idre Fjäll A","Id":"112540","Latitude":61.8892,"Longitude":12.8542,"Altitude":869.0},{"Name":"Idvattnet","Id":"147270","Latitude":64.4542,"Longitude":17.0794,"Altitude":352.0},{"Name":"Jokkmokk","Id":"169880","Latitude":66.6135,"Longitude":19.8316,"Altitude":240.0},{"Name":"Jokkmokk Flygplats Mo","Id":"170860","Latitude":66.499,"Longitude":20.131,"Altitude":275.0},{"Name":"Jonstorp","Id":"62560","Latitude":56.931,"Longitude":12.5514,"Altitude":25.0},{"Name":"Jordberga","Id":"53250","Latitude":55.4114,"Longitude":13.4001,"Altitude":40.0},{"Name":"Jormlien","Id":"143440","Latitude":64.7306,"Longitude":13.986,"Altitude":360.0},{"Name":"Junsele","Id":"136420","Latitude":63.6845,"Longitude":16.9508,"Altitude":215.0},{"Name":"Junsele A","Id":"136410","Latitude":63.6849,"Longitude":16.9531,"Altitude":214.0},{"Name":"Jäckvik","Id":"166810","Latitude":66.3881,"Longitude":16.9763,"Altitude":430.0},{"Name":"Jäkkvik V","Id":"167800","Latitude":66.32417,"Longitude":17.09442,"Altitude":552.0},{"Name":"Järkvissle","Id":"126480","Latitude":62.8166,"Longitude":16.6833,"Altitude":90.0},{"Name":"Järnäsklubb A","Id":"139260","Latitude":63.4359,"Longitude":19.6768,"Altitude":6.0},{"Name":"Järpströmmen","Id":"133240","Latitude":63.3915,"Longitude":13.388,"Altitude":380.0},{"Name":"Järvsö","Id":"116430","Latitude":61.7111,"Longitude":16.1667,"Altitude":140.0},{"Name":"Jönköping","Id":"74470","Latitude":57.7666,"Longitude":14.1833,"Altitude":98.0},{"Name":"Jönköpings Flygplats","Id":"74460","Latitude":57.7514,"Longitude":14.0733,"Altitude":226.0},{"Name":"Jönköpings Gamla Flygplats","Id":"74450","Latitude":57.75,"Longitude":14.17,"Altitude":98.0},{"Name":"Kalix","Id":"163690","Latitude":65.85,"Longitude":23.2,"Altitude":6.0},{"Name":"Kalmar","Id":"66640","Latitude":56.67,"Longitude":16.35,"Altitude":7.0},{"Name":"Kalmar","Id":"66410","Latitude":56.727,"Longitude":16.2944,"Altitude":15.0},{"Name":"Kalmar Flygplats","Id":"66420","Latitude":56.6784,"Longitude":16.2922,"Altitude":6.0},{"Name":"Karats","Id":"168910","Latitude":66.6932,"Longitude":18.8146,"Altitude":414.0},{"Name":"Karesuando","Id":"192830","Latitude":68.4421,"Longitude":22.4502,"Altitude":330.0},{"Name":"Karesuando A","Id":"192840","Latitude":68.4432,"Longitude":22.4488,"Altitude":330.0},{"Name":"Karlsborg Mo","Id":"84310","Latitude":58.514,"Longitude":14.5102,"Altitude":95.0},{"Name":"Karlshammar","Id":"76090","Latitude":57.15,"Longitude":16.45,"Altitude":8.0},{"Name":"Karlshamn","Id":"64130","Latitude":56.1813,"Longitude":14.8517,"Altitude":50.0},{"Name":"Karlskrona-Söderstjerna Mo","Id":"65090","Latitude":56.1498,"Longitude":15.5921,"Altitude":2.0},{"Name":"Karlstad","Id":"93250","Latitude":59.384,"Longitude":13.4455,"Altitude":80.0},{"Name":"Karlstad Aut","Id":"93230","Latitude":59.361,"Longitude":13.4728,"Altitude":46.0},{"Name":"Karlstad Flygplats","Id":"93220","Latitude":59.4446,"Longitude":13.3374,"Altitude":107.0},{"Name":"Karpalund","Id":"64040","Latitude":56.05,"Longitude":14.1,"Altitude":4.0},{"Name":"Kasa D","Id":"139200","Latitude":63.3266,"Longitude":19.0532,"Altitude":30.0},{"Name":"Katterjåkk","Id":"188820","Latitude":68.4218,"Longitude":18.1698,"Altitude":515.0},{"Name":"Katterjåkk A","Id":"188850","Latitude":68.4217,"Longitude":18.1719,"Altitude":516.0},{"Name":"Kattuvuoma","Id":"189780","Latitude":68.2833,"Longitude":19.9,"Altitude":355.0},{"Name":"Kerstinbo A","Id":"106160","Latitude":60.2688,"Longitude":16.977,"Altitude":56.0},{"Name":"Kettstaka A","Id":"85460","Latitude":58.7165,"Longitude":15.03,"Altitude":225.0},{"Name":"Kilsbergen-Suttarboda A","Id":"94190","Latitude":59.3,"Longitude":14.8986,"Altitude":219.0},{"Name":"Kinnared","Id":"73610","Latitude":57.0333,"Longitude":13.1166,"Altitude":100.0},{"Name":"Kiruna","Id":"180690","Latitude":67.85,"Longitude":20.2333,"Altitude":505.0},{"Name":"Kiruna Flygplats","Id":"180940","Latitude":67.827,"Longitude":20.3387,"Altitude":459.0},{"Name":"Kittelfjäll","Id":"155680","Latitude":65.25,"Longitude":15.5,"Altitude":560.0},{"Name":"Klagstorp","Id":"83670","Latitude":58.3331337,"Longitude":13.8804054,"Altitude":130.0},{"Name":"Klimpfjäll","Id":"154720","Latitude":65.062,"Longitude":14.7908,"Altitude":594.0},{"Name":"Kloten","Id":"95530","Latitude":59.8707,"Longitude":15.2544,"Altitude":285.0},{"Name":"Kloten A","Id":"95540","Latitude":59.8709,"Longitude":15.2553,"Altitude":289.0},{"Name":"Klutmark","Id":"150640","Latitude":64.75,"Longitude":20.6333,"Altitude":80.0},{"Name":"Klövsjö","Id":"124320","Latitude":62.5335,"Longitude":14.2028,"Altitude":549.0},{"Name":"Klövsjöhöjden A","Id":"124300","Latitude":62.4961,"Longitude":14.1571,"Altitude":802.0},{"Name":"Knäred","Id":"63630","Latitude":56.5216,"Longitude":13.3369,"Altitude":60.0},{"Name":"Knås","Id":"103570","Latitude":60.9676,"Longitude":13.8985,"Altitude":280.0},{"Name":"Kolleberga","Id":"63610","Latitude":56.0666,"Longitude":13.2666,"Altitude":50.0},{"Name":"Kolmården-Strömsfors A","Id":"86420","Latitude":58.6894,"Longitude":16.3103,"Altitude":153.0},{"Name":"Kompelusvaara","Id":"182720","Latitude":67.0919,"Longitude":22.2178,"Altitude":263.0},{"Name":"Korpilombolo M","Id":"173960","Latitude":66.8542,"Longitude":23.0571,"Altitude":178.0},{"Name":"Korsselbränna","Id":"145280","Latitude":64.4571,"Longitude":15.5423,"Altitude":178.0},{"Name":"Korsvattnet A","Id":"133500","Latitude":63.8395,"Longitude":13.5037,"Altitude":717.0},{"Name":"Kosta Mo","Id":"65510","Latitude":56.8403,"Longitude":15.47,"Altitude":230.0},{"Name":"Kramfors-Gistgårdsön","Id":"137040","Latitude":63.0502,"Longitude":17.7658,"Altitude":5.0},{"Name":"Kristianstad","Id":"64030","Latitude":56.0133,"Longitude":14.2896,"Altitude":10.0},{"Name":"Kristianstad V","Id":"54990","Latitude":56.02391,"Longitude":14.10272,"Altitude":7.0},{"Name":"Kristianstad everöd","Id":"54550","Latitude":55.9245,"Longitude":14.0842,"Altitude":17.0},{"Name":"Kristinehamn","Id":"94180","Latitude":59.3107,"Longitude":14.1019,"Altitude":82.0},{"Name":"Kroksjö","Id":"148300","Latitude":64.5073,"Longitude":17.9934,"Altitude":500.0},{"Name":"Kroppefjäll-Granan A","Id":"82360","Latitude":58.6068,"Longitude":12.1999,"Altitude":174.0},{"Name":"Kräckelbäcken","Id":"114330","Latitude":61.55,"Longitude":14.2,"Altitude":670.0},{"Name":"Krångede A","Id":"136090","Latitude":63.1521,"Longitude":16.1733,"Altitude":183.0},{"Name":"Kuggören","Id":"117420","Latitude":61.7027,"Longitude":17.5225,"Altitude":2.0},{"Name":"Kuggören A","Id":"117430","Latitude":61.7033,"Longitude":17.525,"Altitude":8.0},{"Name":"Kulbäcksliden","Id":"149610","Latitude":64.2,"Longitude":19.5666,"Altitude":200.0},{"Name":"Kullen","Id":"62190","Latitude":56.3012,"Longitude":12.454,"Altitude":72.0},{"Name":"Kvarn Mo","Id":"85390","Latitude":58.6277,"Longitude":15.4372,"Altitude":72.0},{"Name":"Kvarnberg","Id":"114270","Latitude":61.4446,"Longitude":14.8744,"Altitude":434.0},{"Name":"Kvikkjokk-Årrenjarka","Id":"167980","Latitude":66.8876,"Longitude":18.0179,"Altitude":314.0},{"Name":"Kvikkjokk-Årrenjarka A","Id":"167990","Latitude":66.8888,"Longitude":18.0234,"Altitude":320.0},{"Name":"Kymbo V","Id":"83040","Latitude":58.0794,"Longitude":13.78495,"Altitude":222.0},{"Name":"Kyrkerud","Id":"92630","Latitude":59.3833,"Longitude":12.1166,"Altitude":110.0},{"Name":"Källsjö","Id":"72140","Latitude":57.2323,"Longitude":12.7042,"Altitude":154.0},{"Name":"Kärna","Id":"71510","Latitude":57.84028,"Longitude":11.8086109,"Altitude":21.0},{"Name":"Kärnskogen","Id":"85650","Latitude":58.85,"Longitude":15.2833,"Altitude":108.0},{"Name":"Kävlinge","Id":"53480","Latitude":55.8,"Longitude":13.1,"Altitude":30.0},{"Name":"Kårsta","Id":"98400","Latitude":59.6575,"Longitude":18.2718,"Altitude":20.0},{"Name":"Köping","Id":"96310","Latitude":59.5171,"Longitude":15.9909,"Altitude":10.0},{"Name":"Köpinge","Id":"53270","Latitude":55.4575,"Longitude":13.9379,"Altitude":10.0},{"Name":"Laesö Ost A","Id":"71140","Latitude":57.1834,"Longitude":11.5332,"Altitude":4.0},{"Name":"Lainio","Id":"182930","Latitude":67.7615,"Longitude":22.3518,"Altitude":315.0},{"Name":"Laisvallsby","Id":"167730","Latitude":66.1347,"Longitude":17.1748,"Altitude":460.0},{"Name":"Lakaträsk A","Id":"171790","Latitude":66.2801,"Longitude":21.133,"Altitude":185.0},{"Name":"Landsort","Id":"87450","Latitude":58.743,"Longitude":17.8699,"Altitude":4.0},{"Name":"Landsort A","Id":"87440","Latitude":58.7433,"Longitude":17.8716,"Altitude":18.0},{"Name":"Landvetter Flygplats","Id":"72420","Latitude":57.6764,"Longitude":12.2919,"Altitude":154.0},{"Name":"Lanna","Id":"83210","Latitude":58.3476,"Longitude":13.1296,"Altitude":80.0},{"Name":"Lannavaara","Id":"192710","Latitude":68.0502,"Longitude":21.9814,"Altitude":630.0},{"Name":"Lappträsket","Id":"171770","Latitude":66.2283,"Longitude":21.7881,"Altitude":60.0},{"Name":"Latnivaara A","Id":"180770","Latitude":67.2564,"Longitude":20.2747,"Altitude":453.0},{"Name":"Laxbäcken","Id":"146380","Latitude":64.6389,"Longitude":16.4142,"Altitude":345.0},{"Name":"Lejen","Id":"104120","Latitude":60.2,"Longitude":14.4,"Altitude":340.0},{"Name":"Leksand","Id":"105450","Latitude":60.7256,"Longitude":15.0167,"Altitude":175.0},{"Name":"Lennartsfors","Id":"91620","Latitude":59.3,"Longitude":11.9333,"Altitude":125.0},{"Name":"Lessebo","Id":"65450","Latitude":56.7486,"Longitude":15.2747,"Altitude":170.0},{"Name":"Lidköping","Id":"83320","Latitude":58.4666,"Longitude":13.1166,"Altitude":50.0},{"Name":"Likenäs","Id":"103600","Latitude":60.6495628,"Longitude":13.0140038,"Altitude":160.0},{"Name":"Lillhärdal","Id":"114510","Latitude":61.8547,"Longitude":14.0921,"Altitude":440.0},{"Name":"Lillviken-Roparudden V","Id":"166940","Latitude":66.48603,"Longitude":16.41734,"Altitude":483.0},{"Name":"Lindesberg","Id":"95350","Latitude":59.5737,"Longitude":15.2365,"Altitude":70.0},{"Name":"Linköping","Id":"85250","Latitude":58.4166,"Longitude":15.6333,"Altitude":64.0},{"Name":"Ljungby","Id":"63500","Latitude":56.8203,"Longitude":13.9469,"Altitude":145.0},{"Name":"Ljungby A","Id":"63510","Latitude":56.8526,"Longitude":13.8822,"Altitude":148.0},{"Name":"Ljungbyhed","Id":"63050","Latitude":56.0752,"Longitude":13.2318,"Altitude":43.0},{"Name":"Ljungskile","Id":"81130","Latitude":58.2159,"Longitude":11.9321,"Altitude":70.0},{"Name":"Ljungå","Id":"126460","Latitude":62.7594,"Longitude":16.3141,"Altitude":220.0},{"Name":"Ljusdal","Id":"116500","Latitude":61.8333,"Longitude":16.1333,"Altitude":140.0},{"Name":"Ljusnedal","Id":"122330","Latitude":62.5493,"Longitude":12.6043,"Altitude":585.0},{"Name":"Lofsdalen","Id":"123070","Latitude":62.1132,"Longitude":13.2841,"Altitude":610.0},{"Name":"Lommaryd","Id":"74530","Latitude":57.8887,"Longitude":14.7342,"Altitude":240.0},{"Name":"Luleå","Id":"162880","Latitude":65.62,"Longitude":22.1307,"Altitude":5.0},{"Name":"Luleå Flygplats","Id":"162860","Latitude":65.5434,"Longitude":22.1193,"Altitude":17.0},{"Name":"Luleå-Bergnäset","Id":"162870","Latitude":65.5762,"Longitude":22.109,"Altitude":12.0},{"Name":"Lund","Id":"53430","Latitude":55.693,"Longitude":13.229,"Altitude":25.0},{"Name":"Lund Lth","Id":"53440","Latitude":55.7142,"Longitude":13.2152,"Altitude":73.0},{"Name":"Lungö A","Id":"128390","Latitude":62.6431,"Longitude":18.0929,"Altitude":17.0},{"Name":"Lurö","Id":"83460","Latitude":58.7904,"Longitude":13.2534,"Altitude":55.0},{"Name":"Lurö","Id":"83650","Latitude":58.8,"Longitude":13.25,"Altitude":55.0},{"Name":"Lycksele","Id":"148350","Latitude":64.5871,"Longitude":18.6587,"Altitude":234.0},{"Name":"Lycksele A","Id":"148330","Latitude":64.5492,"Longitude":18.7169,"Altitude":210.0},{"Name":"Lyckås","Id":"97240","Latitude":59.4,"Longitude":17.6666,"Altitude":15.0},{"Name":"Längjum","Id":"83130","Latitude":58.2212,"Longitude":13.0607,"Altitude":95.0},{"Name":"Lännäs","Id":"137110","Latitude":63.16629,"Longitude":17.65431,"Altitude":30.0},{"Name":"Långvattnet","Id":"156730","Latitude":65.1049,"Longitude":16.6919,"Altitude":420.0},{"Name":"Lörudden","Id":"127140","Latitude":62.2314,"Longitude":17.6623,"Altitude":2.0},{"Name":"Lövånger","Id":"151220","Latitude":64.3636,"Longitude":21.3152,"Altitude":21.0},{"Name":"Maglarp Aut","Id":"53220","Latitude":55.384,"Longitude":13.0595,"Altitude":17.0},{"Name":"Malexander","Id":"85040","Latitude":58.0729,"Longitude":15.2352,"Altitude":195.0},{"Name":"Malexander A","Id":"85050","Latitude":58.0718,"Longitude":15.2359,"Altitude":195.0},{"Name":"Malmberget","Id":"180750","Latitude":67.1681,"Longitude":20.6389,"Altitude":400.0},{"Name":"Malmslätt","Id":"85240","Latitude":58.4004,"Longitude":15.5327,"Altitude":93.0},{"Name":"Malmö","Id":"53360","Latitude":55.5782,"Longitude":13.0141,"Altitude":13.0},{"Name":"Malmö 2","Id":"53370","Latitude":55.6048,"Longitude":12.9841,"Altitude":3.0},{"Name":"Malmö A","Id":"52350","Latitude":55.5714,"Longitude":13.0734,"Altitude":20.0},{"Name":"Malung","Id":"103410","Latitude":60.6717,"Longitude":13.7058,"Altitude":310.0},{"Name":"Malung A","Id":"103420","Latitude":60.6773,"Longitude":13.71,"Altitude":306.0},{"Name":"Malå","Id":"158750","Latitude":65.1808,"Longitude":18.7431,"Altitude":320.0},{"Name":"Malå-Brännan A","Id":"158740","Latitude":65.1522,"Longitude":18.5974,"Altitude":363.0},{"Name":"Mariedamm","Id":"85520","Latitude":58.8509,"Longitude":15.164,"Altitude":132.0},{"Name":"Mariefred","Id":"97170","Latitude":59.2661,"Longitude":17.2342,"Altitude":10.0},{"Name":"Marielund","Id":"65130","Latitude":56.2182,"Longitude":15.5331,"Altitude":25.0},{"Name":"Mariestad","Id":"83440","Latitude":58.7136,"Longitude":13.823,"Altitude":50.0},{"Name":"Markaryd","Id":"63280","Latitude":56.4595,"Longitude":13.6191,"Altitude":110.0},{"Name":"Markusvinsa","Id":"172920","Latitude":66.7265,"Longitude":22.9001,"Altitude":164.0},{"Name":"Marsliden","Id":"155720","Latitude":65.0251,"Longitude":15.3668,"Altitude":550.0},{"Name":"Marviken","Id":"86330","Latitude":58.5491,"Longitude":16.8157,"Altitude":10.0},{"Name":"Mattmar V","Id":"133180","Latitude":63.30543,"Longitude":13.87671,"Altitude":360.0},{"Name":"Mierkenies","Id":"166900","Latitude":66.6798,"Longitude":16.1137,"Altitude":600.0},{"Name":"Mierkenis A","Id":"166910","Latitude":66.6815,"Longitude":16.1088,"Altitude":614.0},{"Name":"Mo","Id":"133630","Latitude":63.3166,"Longitude":13.4833,"Altitude":330.0},{"Name":"Mockfjärd","Id":"104300","Latitude":60.5074,"Longitude":14.9585,"Altitude":192.0},{"Name":"Molkom","Id":"93360","Latitude":59.6166,"Longitude":13.75,"Altitude":93.0},{"Name":"Molla","Id":"73570","Latitude":57.936,"Longitude":13.0668,"Altitude":190.0},{"Name":"Mora","Id":"114010","Latitude":61.0025,"Longitude":14.5874,"Altitude":175.0},{"Name":"Mora A","Id":"104580","Latitude":60.9607,"Longitude":14.507,"Altitude":196.0},{"Name":"Mossen","Id":"77170","Latitude":57.2833,"Longitude":17.0042,"Altitude":10.0},{"Name":"Motala Kraftverk","Id":"85330","Latitude":58.5471,"Longitude":15.0753,"Altitude":94.0},{"Name":"Mullsjö","Id":"73560","Latitude":57.9166,"Longitude":13.8833,"Altitude":240.0},{"Name":"Munka-Ljungby","Id":"62130","Latitude":56.2287,"Longitude":12.9834,"Altitude":20.0},{"Name":"Munsvattnet","Id":"144160","Latitude":64.2734,"Longitude":14.451,"Altitude":520.0},{"Name":"Muodoslompolo","Id":"183980","Latitude":67.9443,"Longitude":23.4441,"Altitude":240.0},{"Name":"Murjek","Id":"170850","Latitude":66.4826,"Longitude":20.8813,"Altitude":260.0},{"Name":"Myrheden","Id":"160790","Latitude":65.2984,"Longitude":20.2124,"Altitude":250.0},{"Name":"Mästerby","Id":"78320","Latitude":57.47303,"Longitude":18.27391,"Altitude":36.4},{"Name":"Målilla","Id":"75240","Latitude":57.3964,"Longitude":15.8315,"Altitude":100.0},{"Name":"Målilla A","Id":"75250","Latitude":57.3848,"Longitude":15.8037,"Altitude":95.0},{"Name":"Måseskär","Id":"81060","Latitude":58.0944,"Longitude":11.3348,"Altitude":14.0},{"Name":"Måseskär A","Id":"81050","Latitude":58.094,"Longitude":11.3333,"Altitude":16.0},{"Name":"Mörbylånga","Id":"66320","Latitude":56.5256,"Longitude":16.39,"Altitude":5.0},{"Name":"Mörsil","Id":"133190","Latitude":63.3193,"Longitude":13.6488,"Altitude":400.0},{"Name":"Naglarp","Id":"74630","Latitude":57.4666,"Longitude":14.8833,"Altitude":250.0},{"Name":"Naimakka","Id":"191900","Latitude":68.6779,"Longitude":21.5277,"Altitude":403.0},{"Name":"Naimakka A","Id":"191910","Latitude":68.6777,"Longitude":21.5274,"Altitude":402.0},{"Name":"Naisheden","Id":"172680","Latitude":66.5333,"Longitude":22.3666,"Altitude":95.0},{"Name":"Nattavaara","Id":"170690","Latitude":66.7666,"Longitude":20.9666,"Altitude":330.0},{"Name":"Nattavaara A","Id":"170930","Latitude":66.7529,"Longitude":20.9281,"Altitude":327.0},{"Name":"Nattavaara by","Id":"171920","Latitude":66.7586,"Longitude":21.0537,"Altitude":350.0},{"Name":"Naven A","Id":"83420","Latitude":58.6998,"Longitude":13.1109,"Altitude":53.0},{"Name":"Nedre Soppero V","Id":"191720","Latitude":68.04398,"Longitude":21.75496,"Altitude":355.0},{"Name":"Nidingen","Id":"71180","Latitude":57.3025,"Longitude":11.9038,"Altitude":4.0},{"Name":"Nidingen A","Id":"71190","Latitude":57.304,"Longitude":11.9064,"Altitude":2.0},{"Name":"Nikkaluokta","Id":"179950","Latitude":67.8488,"Longitude":19.0233,"Altitude":470.0},{"Name":"Nikkaluokta A","Id":"179960","Latitude":67.8542,"Longitude":19.0253,"Altitude":466.0},{"Name":"Noppikoski","Id":"114630","Latitude":61.5,"Longitude":14.85,"Altitude":340.0},{"Name":"Norderön","Id":"134090","Latitude":63.1618,"Longitude":14.3692,"Altitude":320.0},{"Name":"Nordkoster A","Id":"81540","Latitude":58.8925,"Longitude":11.0062,"Altitude":33.0},{"Name":"Nordmaling","Id":"139340","Latitude":63.5739,"Longitude":19.4875,"Altitude":4.0},{"Name":"Nordvik","Id":"128510","Latitude":62.8485,"Longitude":18.0159,"Altitude":20.0},{"Name":"Norrberg-Norrhög V","Id":"125170","Latitude":62.26317,"Longitude":15.67093,"Altitude":327.0},{"Name":"Norriån","Id":"171780","Latitude":66.25,"Longitude":21.8,"Altitude":55.0},{"Name":"Norrköping","Id":"86360","Latitude":58.606,"Longitude":16.2127,"Altitude":3.0},{"Name":"Norrköping-Kungsängen","Id":"86350","Latitude":58.5842,"Longitude":16.2383,"Altitude":5.0},{"Name":"Norrköping-SMHI","Id":"86340","Latitude":58.58283,"Longitude":16.147,"Altitude":40.2},{"Name":"Norrköping-Sörby","Id":"86370","Latitude":58.6082,"Longitude":16.1212,"Altitude":27.0},{"Name":"Norrtälje","Id":"98460","Latitude":59.7506,"Longitude":18.7091,"Altitude":25.0},{"Name":"Norrtälje-Väsby","Id":"98510","Latitude":59.8524,"Longitude":18.7296,"Altitude":10.0},{"Name":"Norråker","Id":"145260","Latitude":64.4309,"Longitude":15.6332,"Altitude":344.0},{"Name":"Norsborg II","Id":"97160","Latitude":59.2524,"Longitude":17.7989,"Altitude":15.0},{"Name":"Norsjö","Id":"149540","Latitude":64.9093,"Longitude":19.4746,"Altitude":296.0},{"Name":"Norsjö A","Id":"149560","Latitude":64.9263,"Longitude":19.3782,"Altitude":309.0},{"Name":"Nyckelby","Id":"97180","Latitude":59.3,"Longitude":17.7166,"Altitude":25.0},{"Name":"Nyhamnsläge","Id":"62140","Latitude":56.2451,"Longitude":12.5438,"Altitude":13.0},{"Name":"Nyköpings Flygplats","Id":"86480","Latitude":58.7833,"Longitude":16.9166,"Altitude":42.0},{"Name":"Nynäshamn","Id":"87570","Latitude":58.919,"Longitude":17.9318,"Altitude":10.0},{"Name":"Nässjö","Id":"74390","Latitude":57.6431,"Longitude":14.6895,"Altitude":305.0},{"Name":"Näsudden Aut","Id":"78040","Latitude":57.0735,"Longitude":18.2222,"Altitude":5.0},{"Name":"Nävelsjö","Id":"74240","Latitude":57.4042,"Longitude":14.891,"Altitude":215.0},{"Name":"Offer","Id":"137070","Latitude":63.1492,"Longitude":17.7617,"Altitude":27.0},{"Name":"Ogestad","Id":"76530","Latitude":57.8748,"Longitude":16.1689,"Altitude":81.0},{"Name":"Olofström","Id":"64170","Latitude":56.2773,"Longitude":14.5177,"Altitude":65.0},{"Name":"Orrbyn","Id":"162980","Latitude":65.9446,"Longitude":22.116,"Altitude":15.0},{"Name":"Orrskog","Id":"107220","Latitude":60.3833,"Longitude":17.4167,"Altitude":35.0},{"Name":"Osby","Id":"63220","Latitude":56.3742,"Longitude":13.9376,"Altitude":90.0},{"Name":"Oskarsgrundet Aut","Id":"52360","Latitude":55.597,"Longitude":12.8575,"Altitude":1.0},{"Name":"Oskarshamn","Id":"76160","Latitude":57.2674,"Longitude":16.4149,"Altitude":20.0},{"Name":"Oxelösund","Id":"87400","Latitude":58.6777,"Longitude":17.1223,"Altitude":10.0},{"Name":"Paharova A","Id":"172940","Latitude":66.8107,"Longitude":22.336,"Altitude":228.0},{"Name":"Pajala","Id":"183760","Latitude":67.2101,"Longitude":23.3928,"Altitude":168.0},{"Name":"Pajala A","Id":"183750","Latitude":67.2049,"Longitude":23.3952,"Altitude":171.0},{"Name":"Parkalompolo A","Id":"182910","Latitude":67.7315,"Longitude":22.8266,"Altitude":312.0},{"Name":"Persberg","Id":"94450","Latitude":59.7497,"Longitude":14.2354,"Altitude":225.0},{"Name":"Petisträsk A","Id":"149340","Latitude":64.5669,"Longitude":19.6983,"Altitude":258.0},{"Name":"Pite-Rönnskär A","Id":"161710","Latitude":65.035,"Longitude":21.5655,"Altitude":4.0},{"Name":"Piteå","Id":"161790","Latitude":65.2636,"Longitude":21.4776,"Altitude":5.0},{"Name":"Pitsund","Id":"161770","Latitude":65.23,"Longitude":21.52,"Altitude":8.0},{"Name":"Porjus","Id":"169980","Latitude":66.9597,"Longitude":19.823,"Altitude":375.0},{"Name":"Prästkulla","Id":"74440","Latitude":57.7242,"Longitude":14.986,"Altitude":290.0},{"Name":"Pålkem","Id":"171810","Latitude":66.3888,"Longitude":21.6098,"Altitude":265.0},{"Name":"Pålkem M","Id":"171820","Latitude":66.3855,"Longitude":21.6167,"Altitude":261.0},{"Name":"Ramsele","Id":"136320","Latitude":63.32,"Longitude":16.28,"Altitude":205.0},{"Name":"Ramsjöholm","Id":"74490","Latitude":57.8429,"Longitude":14.4317,"Altitude":225.0},{"Name":"Randijaur","Id":"169930","Latitude":66.761,"Longitude":19.3168,"Altitude":290.0},{"Name":"Remningstorp","Id":"83280","Latitude":58.4529,"Longitude":13.6671,"Altitude":140.0},{"Name":"Rensjön A","Id":"189720","Latitude":68.0745,"Longitude":19.8392,"Altitude":493.0},{"Name":"Rickleå","Id":"150090","Latitude":64.0875,"Longitude":20.9444,"Altitude":10.0},{"Name":"Riddarhyttan","Id":"95490","Latitude":59.8085,"Longitude":15.5555,"Altitude":155.0},{"Name":"Riksgränsen","Id":"188830","Latitude":68.4284,"Longitude":18.1302,"Altitude":508.0},{"Name":"Riksten","Id":"97110","Latitude":59.1833,"Longitude":17.9167,"Altitude":54.0},{"Name":"Ringhals","Id":"72150","Latitude":57.253,"Longitude":12.1032,"Altitude":10.0},{"Name":"Ringhals Aut","Id":"72160","Latitude":57.2577,"Longitude":12.107,"Altitude":10.0},{"Name":"Rinkaby","Id":"64600","Latitude":55.9833,"Longitude":14.2666,"Altitude":7.0},{"Name":"Ripsa","Id":"86570","Latitude":58.9817,"Longitude":16.9168,"Altitude":40.0},{"Name":"Risinge","Id":"108110","Latitude":60.175,"Longitude":18.2272,"Altitude":15.0},{"Name":"Risträsk V","Id":"147420","Latitude":64.73431,"Longitude":17.40337,"Altitude":598.0},{"Name":"Ritsem","Id":"177920","Latitude":67.7261,"Longitude":17.4718,"Altitude":521.0},{"Name":"Ritsem A","Id":"177930","Latitude":67.7262,"Longitude":17.4711,"Altitude":532.0},{"Name":"Roma","Id":"78310","Latitude":57.5069,"Longitude":18.4539,"Altitude":32.0},{"Name":"Roma Aut","Id":"78300","Latitude":57.4998,"Longitude":18.4639,"Altitude":32.0},{"Name":"Roma V","Id":"78290","Latitude":57.54361,"Longitude":18.42533,"Altitude":32.0},{"Name":"Romanäs","Id":"85010","Latitude":58.0694,"Longitude":15.0222,"Altitude":155.0},{"Name":"Ronneby","Id":"65730","Latitude":56.2,"Longitude":15.2833,"Altitude":10.0},{"Name":"Ronneby-Bredåkra","Id":"65160","Latitude":56.2619,"Longitude":15.2742,"Altitude":58.0},{"Name":"Rossared D","Id":"72300","Latitude":57.485,"Longitude":12.1997,"Altitude":15.0},{"Name":"Ryd","Id":"64620","Latitude":56.45,"Longitude":14.7166,"Altitude":140.0},{"Name":"Rynge V","Id":"53180","Latitude":55.47411,"Longitude":13.66833,"Altitude":48.0},{"Name":"Ryningsnäs","Id":"75160","Latitude":57.2666,"Longitude":15.9333,"Altitude":90.0},{"Name":"Rämshyttan","Id":"105200","Latitude":60.3333,"Longitude":15.2,"Altitude":260.0},{"Name":"Rångedala A","Id":"73480","Latitude":57.7848,"Longitude":13.1668,"Altitude":297.0},{"Name":"Röbäcksdalen","Id":"140490","Latitude":63.8129,"Longitude":20.2397,"Altitude":10.0},{"Name":"Rödkallen A","Id":"162790","Latitude":65.3131,"Longitude":22.3753,"Altitude":1.0},{"Name":"Rönnskär","Id":"161670","Latitude":65.0333,"Longitude":21.5666,"Altitude":5.0},{"Name":"Rörastrand","Id":"81040","Latitude":58.0582,"Longitude":11.6528,"Altitude":5.0},{"Name":"Rörbäcksnäs","Id":"112080","Latitude":61.1269,"Longitude":12.8226,"Altitude":465.0},{"Name":"Rörsbo","Id":"65360","Latitude":56.601,"Longitude":15.5192,"Altitude":140.0},{"Name":"Röskär","Id":"98260","Latitude":59.4166,"Longitude":18.1666,"Altitude":15.0},{"Name":"Rösta","Id":"134150","Latitude":63.2443,"Longitude":14.5535,"Altitude":360.0},{"Name":"Röstebo","Id":"116230","Latitude":61.3882,"Longitude":16.4295,"Altitude":115.0},{"Name":"Saittarova A","Id":"182810","Latitude":67.3376,"Longitude":22.2334,"Altitude":240.0},{"Name":"Sala","Id":"96550","Latitude":59.9045,"Longitude":16.6607,"Altitude":60.0},{"Name":"Sala A","Id":"96560","Latitude":59.9098,"Longitude":16.6875,"Altitude":57.0},{"Name":"Saltmyran","Id":"159680","Latitude":65.4166,"Longitude":19.5,"Altitude":350.0},{"Name":"Saltoluokta","Id":"178680","Latitude":67.3833,"Longitude":18.55,"Altitude":393.0},{"Name":"Sandbro","Id":"107050","Latitude":60.0042,"Longitude":17.5833,"Altitude":35.0},{"Name":"Sandbäckshult","Id":"76000","Latitude":56.9835,"Longitude":16.283,"Altitude":37.0},{"Name":"Sandhammaren","Id":"54230","Latitude":55.3872,"Longitude":14.1947,"Altitude":4.0},{"Name":"Sandhamn","Id":"98170","Latitude":59.2901,"Longitude":18.9179,"Altitude":15.0},{"Name":"Sandsjöbacka","Id":"72340","Latitude":57.5571,"Longitude":12.0387,"Altitude":50.0},{"Name":"Sandviken","Id":"106360","Latitude":60.6103,"Longitude":16.7896,"Altitude":65.0},{"Name":"Sankt Olof","Id":"54390","Latitude":55.6402,"Longitude":14.1273,"Altitude":130.0},{"Name":"Sarkavara","Id":"170680","Latitude":66.7374,"Longitude":20.3605,"Altitude":385.0},{"Name":"Satis","Id":"178850","Latitude":67.5009,"Longitude":18.3911,"Altitude":425.0},{"Name":"Saxnäs V","Id":"145580","Latitude":64.96782,"Longitude":15.37907,"Altitude":542.0},{"Name":"Sidsjö D","Id":"127220","Latitude":62.3809,"Longitude":17.2854,"Altitude":60.0},{"Name":"Sikåskälen","Id":"135380","Latitude":63.6198,"Longitude":15.0929,"Altitude":490.0},{"Name":"Siljansfors","Id":"104530","Latitude":60.8846,"Longitude":14.3786,"Altitude":260.0},{"Name":"Sillre V","Id":"126440","Latitude":62.76291,"Longitude":16.7387,"Altitude":210.0},{"Name":"Simlångsdalen","Id":"63440","Latitude":56.7154,"Longitude":13.1247,"Altitude":75.0},{"Name":"Simonstorp","Id":"86470","Latitude":58.78468,"Longitude":16.15439,"Altitude":80.0},{"Name":"Simonstorp","Id":"83050","Latitude":58.0788,"Longitude":13.3957,"Altitude":190.0},{"Name":"Simrishamn","Id":"54330","Latitude":55.5449,"Longitude":14.3578,"Altitude":8.0},{"Name":"Singeshult","Id":"63450","Latitude":56.7429,"Longitude":13.3608,"Altitude":165.0},{"Name":"Singö","Id":"108100","Latitude":60.1595,"Longitude":18.7436,"Altitude":12.0},{"Name":"Sjöaryd","Id":"64630","Latitude":56.5166,"Longitude":14.75,"Altitude":150.0},{"Name":"Skagsudde","Id":"139110","Latitude":63.1885,"Longitude":19.0194,"Altitude":13.0},{"Name":"Skagsudde A","Id":"139120","Latitude":63.1886,"Longitude":19.0202,"Altitude":11.0},{"Name":"Skara","Id":"83270","Latitude":58.4072,"Longitude":13.4407,"Altitude":115.0},{"Name":"Skara","Id":"83620","Latitude":58.4,"Longitude":13.45,"Altitude":116.0},{"Name":"Skara-Ekeberg","Id":"83240","Latitude":58.4,"Longitude":13.55,"Altitude":130.0},{"Name":"Skara-Stenum","Id":"83200","Latitude":58.37,"Longitude":13.52,"Altitude":130.0},{"Name":"Skara-Västerskog","Id":"83260","Latitude":58.38,"Longitude":13.33,"Altitude":105.0},{"Name":"Skarpö A","Id":"98160","Latitude":59.3455,"Longitude":18.74058,"Altitude":20.0},{"Name":"Skedemosse","Id":"66500","Latitude":56.823,"Longitude":16.7337,"Altitude":25.0},{"Name":"Skellefteå","Id":"150450","Latitude":64.7584,"Longitude":20.9478,"Altitude":40.0},{"Name":"Skellefteå Flygplats","Id":"151380","Latitude":64.6244,"Longitude":21.0717,"Altitude":48.0},{"Name":"Skeppsmora V","Id":"105070","Latitude":60.12295,"Longitude":15.12262,"Altitude":246.0},{"Name":"Skillinge A","Id":"54290","Latitude":55.4889,"Longitude":14.3172,"Altitude":4.0},{"Name":"Skinnskatteberg","Id":"95500","Latitude":59.8333,"Longitude":15.6833,"Altitude":113.0},{"Name":"Skivarp","Id":"53670","Latitude":55.4334,"Longitude":13.5805254,"Altitude":20.0},{"Name":"Skärkind","Id":"85280","Latitude":58.472,"Longitude":16.0017,"Altitude":60.0},{"Name":"Skålan","Id":"124390","Latitude":62.65,"Longitude":14.1666,"Altitude":452.0},{"Name":"Skånes fagerhult","Id":"63230","Latitude":56.3666,"Longitude":13.4666,"Altitude":118.0},{"Name":"Skövde","Id":"83230","Latitude":58.3949,"Longitude":13.8436,"Altitude":150.0},{"Name":"Smygehuk","Id":"53200","Latitude":55.3376,"Longitude":13.3563,"Altitude":5.0},{"Name":"Smögen","Id":"81220","Latitude":58.3571,"Longitude":11.2276,"Altitude":20.0},{"Name":"Snavlunda","Id":"84580","Latitude":58.9671,"Longitude":14.8987,"Altitude":144.0},{"Name":"Sollefteå","Id":"137100","Latitude":63.1667,"Longitude":17.2802,"Altitude":20.0},{"Name":"Solsidan","Id":"97560","Latitude":59.4,"Longitude":17.5639,"Altitude":15.0},{"Name":"Sonnbo","Id":"106060","Latitude":60.1197,"Longitude":16.2838,"Altitude":89.0},{"Name":"Sorsele","Id":"157860","Latitude":65.5354,"Longitude":17.5225,"Altitude":360.0},{"Name":"Spinkabo","Id":"74340","Latitude":57.5653,"Longitude":14.4693,"Altitude":285.0},{"Name":"Spånsberget","Id":"105240","Latitude":60.3828,"Longitude":15.1418,"Altitude":495.0},{"Name":"Stabbo","Id":"88580","Latitude":58.9733,"Longitude":18.4493,"Altitude":7.0},{"Name":"Staffanstorp","Id":"53720","Latitude":55.65,"Longitude":13.2166,"Altitude":20.0},{"Name":"Staloluokta","Id":"176800","Latitude":67.4083,"Longitude":16.4199,"Altitude":600.0},{"Name":"Stavsjö Aut","Id":"86440","Latitude":58.7333,"Longitude":16.3667,"Altitude":60.0},{"Name":"Stehag","Id":"53540","Latitude":55.9033,"Longitude":13.3995,"Altitude":60.0},{"Name":"Stekenjokk A","Id":"154730","Latitude":65.0942,"Longitude":14.5085,"Altitude":1036.0},{"Name":"Stenkvista","Id":"96210","Latitude":59.3221,"Longitude":16.5577,"Altitude":35.0},{"Name":"Stensele","Id":"157720","Latitude":65.0706,"Longitude":17.1536,"Altitude":325.0},{"Name":"Stenshuvud","Id":"54400","Latitude":55.6646,"Longitude":14.2595,"Altitude":112.0},{"Name":"Stenstugu Försöksgård","Id":"78360","Latitude":57.5979,"Longitude":18.4507,"Altitude":45.0},{"Name":"Stenudden","Id":"167860","Latitude":66.5343,"Longitude":17.6677,"Altitude":453.0},{"Name":"Stjärnsund","Id":"106270","Latitude":60.4551,"Longitude":16.2662,"Altitude":130.0},{"Name":"Stockholm","Id":"98210","Latitude":59.342,"Longitude":18.0575,"Altitude":44.0},{"Name":"Stockholm A","Id":"98230","Latitude":59.3421,"Longitude":18.0577,"Altitude":44.0},{"Name":"Stockholm-Arlanda","Id":"97400","Latitude":59.6269,"Longitude":17.9545,"Altitude":42.0},{"Name":"Stockholm-Bromma","Id":"97200","Latitude":59.3537,"Longitude":17.9513,"Altitude":14.0},{"Name":"Stora Karlsö","Id":"77180","Latitude":57.2893,"Longitude":17.9623,"Altitude":40.0},{"Name":"Stora Segerstad","Id":"73090","Latitude":57.1461,"Longitude":13.5609,"Altitude":180.0},{"Name":"Stora Sjöfallet A","Id":"178860","Latitude":67.4964,"Longitude":18.2943,"Altitude":425.0},{"Name":"Stora Spånsberget A","Id":"105220","Latitude":60.3822,"Longitude":15.1404,"Altitude":492.0},{"Name":"Stora Stensjön Aut","Id":"133570","Latitude":63.9687,"Longitude":13.7251,"Altitude":680.0},{"Name":"Storberg","Id":"158850","Latitude":65.5085,"Longitude":18.9505,"Altitude":453.0},{"Name":"Storbo V","Id":"112530","Latitude":61.84026,"Longitude":12.28798,"Altitude":661.0},{"Name":"Storfinnforsen","Id":"136360","Latitude":63.595,"Longitude":16.1846,"Altitude":232.0},{"Name":"Storfjället-Sälen","Id":"113610","Latitude":61.1666,"Longitude":13.1166,"Altitude":770.0},{"Name":"Storfors","Id":"94320","Latitude":59.5365,"Longitude":14.28,"Altitude":120.0},{"Name":"Storjungfrun","Id":"117610","Latitude":61.1666,"Longitude":17.3333,"Altitude":10.0},{"Name":"Storliden","Id":"149570","Latitude":64.95,"Longitude":19.4833,"Altitude":390.0},{"Name":"Storlien","Id":"132620","Latitude":63.3158,"Longitude":12.1009,"Altitude":595.0},{"Name":"Storlien-Storvallen A","Id":"132170","Latitude":63.2831,"Longitude":12.1246,"Altitude":583.0},{"Name":"Storlien-Visjövalen","Id":"132180","Latitude":63.3028,"Longitude":12.1253,"Altitude":642.0},{"Name":"Stormyra","Id":"98140","Latitude":59.2032,"Longitude":18.3308,"Altitude":30.0},{"Name":"Storsjö Kapell","Id":"123480","Latitude":62.8016,"Longitude":13.0731,"Altitude":580.0},{"Name":"Storöhamn","Id":"163920","Latitude":65.7306,"Longitude":23.0924,"Altitude":7.0},{"Name":"Storön A","Id":"163900","Latitude":65.6982,"Longitude":23.1005,"Altitude":4.0},{"Name":"Strandvallen","Id":"74650","Latitude":57.85,"Longitude":14.2833,"Altitude":110.0},{"Name":"Strängnäs","Id":"97270","Latitude":59.402,"Longitude":17.0605,"Altitude":25.0},{"Name":"Strängstorp","Id":"96030","Latitude":59.05,"Longitude":16.2166,"Altitude":62.0},{"Name":"Strömstad","Id":"81560","Latitude":58.9333,"Longitude":11.2,"Altitude":20.0},{"Name":"Strömsund","Id":"135520","Latitude":63.8548,"Longitude":15.5894,"Altitude":373.0},{"Name":"Sturup","Id":"53300","Latitude":55.5231,"Longitude":13.3787,"Altitude":72.0},{"Name":"Ställdalen","Id":"94580","Latitude":59.9391,"Longitude":14.891,"Altitude":205.0},{"Name":"Stångfallet","Id":"94660","Latitude":59.95,"Longitude":14.8833,"Altitude":230.0},{"Name":"Suddesjaur","Id":"159970","Latitude":65.8952,"Longitude":19.0929,"Altitude":342.0},{"Name":"Sudok","Id":"170790","Latitude":66.3006,"Longitude":20.424,"Altitude":170.0},{"Name":"Sunderbyn","Id":"161680","Latitude":65.7,"Longitude":21.85,"Altitude":20.0},{"Name":"Sundmo","Id":"136640","Latitude":63.5,"Longitude":16.7,"Altitude":200.0},{"Name":"Sundsvall","Id":"127240","Latitude":62.4066,"Longitude":17.2664,"Altitude":35.0},{"Name":"Sundsvall-Råsta V","Id":"127230","Latitude":62.43064,"Longitude":17.3447,"Altitude":83.0},{"Name":"Sundsvalls Flygplats","Id":"127310","Latitude":62.5246,"Longitude":17.441,"Altitude":4.0},{"Name":"Sunne","Id":"93650","Latitude":59.85,"Longitude":13.1666,"Altitude":85.0},{"Name":"Sunne A","Id":"93520","Latitude":59.8644,"Longitude":13.1193,"Altitude":110.0},{"Name":"Sutterhöjden","Id":"93640","Latitude":59.5833,"Longitude":13.9333,"Altitude":153.0},{"Name":"Svabensverk","Id":"115050","Latitude":61.0442,"Longitude":15.7921,"Altitude":240.0},{"Name":"Svalöv","Id":"53560","Latitude":55.9081,"Longitude":13.1174,"Altitude":72.0},{"Name":"Svanberga A","Id":"98490","Latitude":59.8321,"Longitude":18.6348,"Altitude":15.0},{"Name":"Svappavaara","Id":"181890","Latitude":67.6501,"Longitude":21.0558,"Altitude":327.0},{"Name":"Svarteborg","Id":"81340","Latitude":58.5707,"Longitude":11.5572,"Altitude":70.0},{"Name":"Svartingstorp","Id":"66460","Latitude":56.786,"Longitude":16.3296,"Altitude":20.0},{"Name":"Svartsjö","Id":"97220","Latitude":59.3595,"Longitude":17.7392,"Altitude":10.0},{"Name":"Sveg","Id":"124020","Latitude":62.0191,"Longitude":14.1904,"Altitude":432.0},{"Name":"Sveg A","Id":"124030","Latitude":62.0471,"Longitude":14.41,"Altitude":362.0},{"Name":"Svenska Björn Aut","Id":"99330","Latitude":59.55,"Longitude":20.02,"Altitude":1.0},{"Name":"Svenska Högarna","Id":"99270","Latitude":59.4445,"Longitude":19.5059,"Altitude":12.0},{"Name":"Svenska Högarna A","Id":"99280","Latitude":59.4428,"Longitude":19.5058,"Altitude":12.0},{"Name":"Sydostbrotten Aut","Id":"140200","Latitude":63.3806,"Longitude":20.0993,"Altitude":24.0},{"Name":"Sylarna A","Id":"132030","Latitude":63.0447,"Longitude":12.2775,"Altitude":1030.0},{"Name":"Säby","Id":"81010","Latitude":58.0201,"Longitude":11.6015,"Altitude":10.0},{"Name":"Säbyholm","Id":"52660","Latitude":55.9,"Longitude":12.8333,"Altitude":10.0},{"Name":"Säffle","Id":"92100","Latitude":59.1412,"Longitude":12.9359,"Altitude":50.0},{"Name":"Sälen","Id":"113100","Latitude":61.1691,"Longitude":13.2593,"Altitude":360.0},{"Name":"Sälen-Högfjället V","Id":"113070","Latitude":61.15829,"Longitude":13.11383,"Altitude":751.0},{"Name":"Särna","Id":"113410","Latitude":61.7068,"Longitude":13.1335,"Altitude":437.0},{"Name":"Särna A","Id":"113420","Latitude":61.6912,"Longitude":13.1865,"Altitude":425.0},{"Name":"Säter","Id":"105210","Latitude":60.35,"Longitude":15.75,"Altitude":160.0},{"Name":"Sävast V","Id":"161920","Latitude":65.75272,"Longitude":21.76498,"Altitude":9.0},{"Name":"Säve","Id":"71470","Latitude":57.7786,"Longitude":11.8824,"Altitude":20.0},{"Name":"Säve-Skålvisered","Id":"71500","Latitude":57.8305,"Longitude":11.92,"Altitude":20.0},{"Name":"Sågmyra","Id":"105410","Latitude":60.7004,"Longitude":15.3263,"Altitude":257.0},{"Name":"Sånnahult","Id":"64390","Latitude":56.5875,"Longitude":14.8014,"Altitude":175.0},{"Name":"Såtenäs","Id":"82260","Latitude":58.4358,"Longitude":12.7075,"Altitude":54.0},{"Name":"Såtenäs D","Id":"82250","Latitude":58.4397,"Longitude":12.6928,"Altitude":55.0},{"Name":"Söderarm A","Id":"99450","Latitude":59.7538,"Longitude":19.4089,"Altitude":15.0},{"Name":"Söderhamn","Id":"117170","Latitude":61.3198,"Longitude":17.0967,"Altitude":10.0},{"Name":"Söderhamn A","Id":"117160","Latitude":61.2691,"Longitude":17.0983,"Altitude":26.0},{"Name":"Södertälje","Id":"97120","Latitude":59.21421,"Longitude":17.62894,"Altitude":23.0},{"Name":"Söråker","Id":"127630","Latitude":62.5166,"Longitude":17.5166,"Altitude":45.0},{"Name":"Tandådalen Aut","Id":"113110","Latitude":61.1766,"Longitude":13.0164,"Altitude":830.0},{"Name":"Tarfala A","Id":"178970","Latitude":67.9113,"Longitude":18.6068,"Altitude":1150.0},{"Name":"Teckomatorp","Id":"53580","Latitude":55.8778,"Longitude":13.0917,"Altitude":30.0},{"Name":"Tegelträsk","Id":"137560","Latitude":63.9515,"Longitude":17.904,"Altitude":380.0},{"Name":"Tidan","Id":"84630","Latitude":58.55,"Longitude":14.0,"Altitude":90.0},{"Name":"Tinghalla","Id":"73660","Latitude":57.9666,"Longitude":13.85,"Altitude":278.0},{"Name":"Tingsryd-Degerhaga","Id":"64320","Latitude":56.5376,"Longitude":14.9019,"Altitude":176.0},{"Name":"Tjåkaape Mo","Id":"169790","Latitude":66.3002,"Longitude":19.2,"Altitude":581.0},{"Name":"Tomta","Id":"96480","Latitude":59.8,"Longitude":16.55,"Altitude":55.0},{"Name":"Tomtabacken A","Id":"74300","Latitude":57.4983,"Longitude":14.4672,"Altitude":356.0},{"Name":"Tornehamn Aut","Id":"188840","Latitude":68.4324,"Longitude":18.6281,"Altitude":512.0},{"Name":"Torneträsk","Id":"189760","Latitude":68.2201,"Longitude":19.7123,"Altitude":393.0},{"Name":"Torpshammar A","Id":"126290","Latitude":62.4943,"Longitude":16.2774,"Altitude":99.0},{"Name":"Torsby","Id":"103080","Latitude":60.1075,"Longitude":12.9908,"Altitude":127.0},{"Name":"Torslanda","Id":"71430","Latitude":57.7166,"Longitude":11.7833,"Altitude":3.0},{"Name":"Torup","Id":"63600","Latitude":56.9632,"Longitude":13.0712,"Altitude":85.0},{"Name":"Torup A","Id":"63590","Latitude":56.9496,"Longitude":13.0625,"Altitude":130.0},{"Name":"Tovehult","Id":"76380","Latitude":57.642,"Longitude":16.5682,"Altitude":25.0},{"Name":"Tranås","Id":"84020","Latitude":58.0389,"Longitude":14.9853,"Altitude":155.0},{"Name":"Tranås Aut","Id":"85020","Latitude":58.03,"Longitude":15.0206,"Altitude":185.0},{"Name":"Trelleborg","Id":"53230","Latitude":55.381,"Longitude":13.1279,"Altitude":5.0},{"Name":"Trillevallen V","Id":"133160","Latitude":63.2631,"Longitude":13.2166,"Altitude":611.0},{"Name":"Trollenäs","Id":"53510","Latitude":55.8666,"Longitude":13.25,"Altitude":55.0},{"Name":"Trollhättan","Id":"82620","Latitude":58.3,"Longitude":12.3166,"Altitude":42.0},{"Name":"Trollhättans Flygplats","Id":"82190","Latitude":58.3141,"Longitude":12.3292,"Altitude":43.0},{"Name":"Trosa","Id":"87540","Latitude":58.9,"Longitude":17.5666,"Altitude":5.0},{"Name":"Trubaduren Aut","Id":"71360","Latitude":57.596,"Longitude":11.6352,"Altitude":1.0},{"Name":"Trängslet","Id":"113230","Latitude":61.3804,"Longitude":13.7273,"Altitude":425.0},{"Name":"Tullinge A","Id":"97100","Latitude":59.1789,"Longitude":17.9125,"Altitude":45.0},{"Name":"Tyllinge","Id":"86610","Latitude":58.0166,"Longitude":16.0833,"Altitude":110.0},{"Name":"Tännäs A","Id":"122260","Latitude":62.4502,"Longitude":12.6702,"Altitude":723.0},{"Name":"Tärnaby","Id":"155910","Latitude":65.7166,"Longitude":15.25,"Altitude":450.0},{"Name":"Uddabo","Id":"72520","Latitude":57.8701,"Longitude":12.7074,"Altitude":245.0},{"Name":"Uddevalla","Id":"81210","Latitude":58.355,"Longitude":11.9541,"Altitude":10.0},{"Name":"Ugerup","Id":"54580","Latitude":55.9657,"Longitude":14.1168,"Altitude":20.0},{"Name":"Ullared A","Id":"72090","Latitude":57.1136,"Longitude":12.7758,"Altitude":122.0},{"Name":"Ullånger","Id":"128590","Latitude":62.9948,"Longitude":18.1794,"Altitude":45.0},{"Name":"Ulricehamn","Id":"73470","Latitude":57.8052,"Longitude":13.4083,"Altitude":175.0},{"Name":"Ulriksfors","Id":"135500","Latitude":63.8345,"Longitude":15.6164,"Altitude":285.0},{"Name":"Ultuna","Id":"97490","Latitude":59.8139,"Longitude":17.6469,"Altitude":15.0},{"Name":"Ulvhäll","Id":"97210","Latitude":59.3619,"Longitude":17.044,"Altitude":5.0},{"Name":"Ulvoberg","Id":"147460","Latitude":64.7627,"Longitude":17.2165,"Altitude":520.0},{"Name":"Ulvsjö","Id":"114360","Latitude":61.6022,"Longitude":14.1847,"Altitude":585.0},{"Name":"Umeå","Id":"140500","Latitude":63.8302,"Longitude":20.2901,"Altitude":10.0},{"Name":"Umeå Flygplats","Id":"140480","Latitude":63.7947,"Longitude":20.2918,"Altitude":14.0},{"Name":"Understen","Id":"108170","Latitude":60.2761,"Longitude":18.9227,"Altitude":12.0},{"Name":"Undersåker","Id":"133200","Latitude":63.3269,"Longitude":13.3826,"Altitude":330.0},{"Name":"Ungskär","Id":"65020","Latitude":56.0419,"Longitude":15.8081,"Altitude":2.0},{"Name":"Untra","Id":"107270","Latitude":60.4393,"Longitude":17.3409,"Altitude":35.0},{"Name":"Uppsala","Id":"97520","Latitude":59.8585,"Longitude":17.6252,"Altitude":13.0},{"Name":"Uppsala Aut","Id":"97510","Latitude":59.8586,"Longitude":17.6253,"Altitude":13.0},{"Name":"Uppsala Flygplats","Id":"97530","Latitude":59.8953,"Longitude":17.5935,"Altitude":21.0},{"Name":"Ursholmen","Id":"81640","Latitude":58.8333,"Longitude":11.0,"Altitude":6.0},{"Name":"Urshult-Kunninge","Id":"64290","Latitude":56.4782,"Longitude":14.8024,"Altitude":145.0},{"Name":"Ursviken","Id":"151640","Latitude":64.7166,"Longitude":21.15,"Altitude":5.0},{"Name":"Uråsa","Id":"64400","Latitude":56.6833,"Longitude":14.95,"Altitude":167.0},{"Name":"Utklippan A","Id":"55570","Latitude":55.9557,"Longitude":15.7077,"Altitude":3.0},{"Name":"Uttersberg","Id":"95640","Latitude":59.75,"Longitude":15.6666,"Altitude":95.0},{"Name":"Utvalnäs Aut","Id":"107450","Latitude":60.7547,"Longitude":17.3574,"Altitude":5.0},{"Name":"Utö","Id":"88570","Latitude":58.9502,"Longitude":18.2669,"Altitude":40.0},{"Name":"Vajmat V","Id":"169860","Latitude":66.50502,"Longitude":19.67495,"Altitude":325.0},{"Name":"Valar","Id":"78030","Latitude":57.0278,"Longitude":18.2194,"Altitude":15.0},{"Name":"Valdemarsvik","Id":"86130","Latitude":58.2148,"Longitude":16.5828,"Altitude":10.0},{"Name":"Valla","Id":"96000","Latitude":59.0185,"Longitude":16.3709,"Altitude":50.0},{"Name":"Varberg","Id":"72080","Latitude":57.1084,"Longitude":12.2741,"Altitude":20.0},{"Name":"Varpnäs","Id":"93240","Latitude":59.4042,"Longitude":13.2667,"Altitude":68.0},{"Name":"Vassbo","Id":"105630","Latitude":60.5333,"Longitude":15.5333,"Altitude":120.0},{"Name":"Vassijaure","Id":"188810","Latitude":68.4316,"Longitude":18.2839,"Altitude":537.0},{"Name":"Ven","Id":"52550","Latitude":55.9,"Longitude":12.7166,"Altitude":20.0},{"Name":"Vetlanda","Id":"75630","Latitude":57.4166,"Longitude":15.0666,"Altitude":200.0},{"Name":"Vidsel","Id":"160960","Latitude":65.8801,"Longitude":20.1315,"Altitude":180.0},{"Name":"Vidsel Mo","Id":"160970","Latitude":65.8769,"Longitude":20.1543,"Altitude":182.0},{"Name":"Viksbäcken","Id":"137030","Latitude":63.05,"Longitude":17.75,"Altitude":6.0},{"Name":"Viksta","Id":"107020","Latitude":60.0694,"Longitude":17.6181,"Altitude":103.0},{"Name":"Vilhelmina A","Id":"146350","Latitude":64.5809,"Longitude":16.8421,"Altitude":348.0},{"Name":"Villingsberg","Id":"94170","Latitude":59.2833,"Longitude":14.7,"Altitude":148.0},{"Name":"Vimmerby","Id":"75400","Latitude":57.6687,"Longitude":15.8518,"Altitude":110.0},{"Name":"Vindel-Björkheden","Id":"156940","Latitude":65.8211,"Longitude":16.7114,"Altitude":350.0},{"Name":"Vindel-Storsjö","Id":"157930","Latitude":65.7666,"Longitude":17.05,"Altitude":345.0},{"Name":"Vindeln-Sunnansjönäs","Id":"149120","Latitude":64.1386,"Longitude":19.7618,"Altitude":237.0},{"Name":"Vinga A","Id":"71380","Latitude":57.6324,"Longitude":11.6077,"Altitude":12.0},{"Name":"Vingåker","Id":"95030","Latitude":59.0782,"Longitude":15.8163,"Altitude":60.0},{"Name":"Vintjärn","Id":"106500","Latitude":60.8321,"Longitude":16.0581,"Altitude":348.0},{"Name":"Visby","Id":"78390","Latitude":57.636,"Longitude":18.2891,"Altitude":28.0},{"Name":"Visby Flygplats","Id":"78400","Latitude":57.6614,"Longitude":18.3428,"Altitude":42.0},{"Name":"Visingsö","Id":"84060","Latitude":58.0908,"Longitude":14.401,"Altitude":110.0},{"Name":"Visingsö A","Id":"84050","Latitude":58.0951,"Longitude":14.4086,"Altitude":94.0},{"Name":"Vissefjärda","Id":"65310","Latitude":56.5124,"Longitude":15.6235,"Altitude":114.0},{"Name":"Vittangi","Id":"181900","Latitude":67.6943,"Longitude":21.6335,"Altitude":250.0},{"Name":"Vuoggatjålme","Id":"166870","Latitude":66.5759,"Longitude":16.3511,"Altitude":500.0},{"Name":"Väddö","Id":"98590","Latitude":59.9833,"Longitude":18.8166,"Altitude":10.0},{"Name":"Väderöarna A","Id":"81350","Latitude":58.5763,"Longitude":11.0685,"Altitude":22.0},{"Name":"Väderöbod","Id":"81620","Latitude":58.55,"Longitude":11.0333,"Altitude":7.0},{"Name":"Vänersborg","Id":"82230","Latitude":58.3552,"Longitude":12.3616,"Altitude":50.0},{"Name":"Vängsö","Id":"97620","Latitude":59.1166,"Longitude":17.2,"Altitude":15.0},{"Name":"Vännäs","Id":"139540","Latitude":63.9187,"Longitude":19.6986,"Altitude":87.0},{"Name":"Värtan","Id":"98200","Latitude":59.35,"Longitude":18.1,"Altitude":20.0},{"Name":"Väsby","Id":"107180","Latitude":60.3,"Longitude":17.4333,"Altitude":35.0},{"Name":"Västanträsk","Id":"150270","Latitude":64.4502,"Longitude":20.4055,"Altitude":140.0},{"Name":"Västerlösa","Id":"85270","Latitude":58.4447,"Longitude":15.3772,"Altitude":75.0},{"Name":"Västerplana","Id":"83340","Latitude":58.5586,"Longitude":13.3508,"Altitude":128.0},{"Name":"Västervik","Id":"76470","Latitude":57.7213,"Longitude":16.4683,"Altitude":33.0},{"Name":"Västerås","Id":"96370","Latitude":59.6166,"Longitude":16.55,"Altitude":10.0},{"Name":"Västerås","Id":"96350","Latitude":59.5977,"Longitude":16.6034,"Altitude":10.0},{"Name":"Västmarkum A","Id":"138070","Latitude":63.1251,"Longitude":18.2555,"Altitude":141.0},{"Name":"Västra Banken Aut","Id":"107530","Latitude":60.88,"Longitude":17.93,"Altitude":25.0},{"Name":"Västra Ny","Id":"85630","Latitude":58.65,"Longitude":15.05,"Altitude":120.0},{"Name":"Växjö","Id":"64520","Latitude":56.8427,"Longitude":14.8176,"Altitude":170.0},{"Name":"Växjö A","Id":"64510","Latitude":56.8464,"Longitude":14.8324,"Altitude":199.0},{"Name":"Växjö-Kronoberg","Id":"64560","Latitude":56.9252,"Longitude":14.7333,"Altitude":182.0},{"Name":"Vårgårda-Hägrunga","Id":"82010","Latitude":58.0166,"Longitude":12.8333,"Altitude":148.0},{"Name":"Våthultström","Id":"73190","Latitude":57.3166,"Longitude":13.4333,"Altitude":163.0},{"Name":"Weibullsholm","Id":"52620","Latitude":55.8722,"Longitude":12.8556,"Altitude":5.0},{"Name":"Wiad","Id":"97070","Latitude":59.1116,"Longitude":17.7219,"Altitude":12.0},{"Name":"Ylinenjärvi A","Id":"173900","Latitude":66.6235,"Longitude":23.468,"Altitude":132.0},{"Name":"Ystad","Id":"53260","Latitude":55.441,"Longitude":13.8278,"Altitude":32.0},{"Name":"Ytterhogdal","Id":"124110","Latitude":62.1825,"Longitude":14.9508,"Altitude":260.0},{"Name":"Yxsjö","Id":"147170","Latitude":64.2833,"Longitude":17.5166,"Altitude":350.0},{"Name":"Zinkgruvan","Id":"85490","Latitude":58.8063,"Longitude":15.1285,"Altitude":215.0},{"Name":"Älgarås","Id":"84470","Latitude":58.7906,"Longitude":14.3188,"Altitude":130.0},{"Name":"Älvdalen A","Id":"114140","Latitude":61.2542,"Longitude":14.0383,"Altitude":252.0},{"Name":"Älvdalen II","Id":"114160","Latitude":61.2555,"Longitude":14.0375,"Altitude":250.0},{"Name":"Älvhöjden","Id":"94560","Latitude":59.9978,"Longitude":14.7889,"Altitude":340.0},{"Name":"Älvsby Skogsskola","Id":"161690","Latitude":65.6833,"Longitude":21.0666,"Altitude":40.0},{"Name":"Älvsbyn A","Id":"161910","Latitude":65.6702,"Longitude":21.0662,"Altitude":40.0},{"Name":"Älvsbyn M","Id":"160890","Latitude":65.6935,"Longitude":20.9858,"Altitude":47.0},{"Name":"Älvsbyn M","Id":"161890","Latitude":65.68,"Longitude":20.97,"Altitude":50.0},{"Name":"Ängelholm","Id":"62710","Latitude":56.25,"Longitude":12.85,"Altitude":10.0},{"Name":"Äspered","Id":"73690","Latitude":57.933094,"Longitude":13.1805429,"Altitude":294.0},{"Name":"Åkers Styckebruk","Id":"97150","Latitude":59.2511,"Longitude":17.0879,"Altitude":20.0},{"Name":"Åkershus","Id":"83540","Latitude":58.898,"Longitude":13.2517,"Altitude":50.0},{"Name":"Ålandsdal","Id":"97700","Latitude":59.8663445,"Longitude":17.279911,"Altitude":40.0},{"Name":"Ålloluokta","Id":"179740","Latitude":67.1261,"Longitude":19.4976,"Altitude":370.0},{"Name":"Ålåsen","Id":"134520","Latitude":63.8683,"Longitude":14.6063,"Altitude":450.0},{"Name":"Åmot A","Id":"106570","Latitude":60.962,"Longitude":16.4311,"Altitude":162.0},{"Name":"Åmotsbruk","Id":"106580","Latitude":60.9645,"Longitude":16.4631,"Altitude":145.0},{"Name":"Åmål","Id":"92030","Latitude":59.0542,"Longitude":12.6969,"Altitude":60.0},{"Name":"Åre","Id":"133230","Latitude":63.4,"Longitude":13.1,"Altitude":440.0},{"Name":"Åre-Björnänge V","Id":"133250","Latitude":63.37375,"Longitude":13.16067,"Altitude":403.0},{"Name":"Åreskutan Aut","Id":"133260","Latitude":63.4304,"Longitude":13.0746,"Altitude":1280.0},{"Name":"Årjäng","Id":"92230","Latitude":59.3833,"Longitude":12.1666,"Altitude":130.0},{"Name":"Åsbräcka-Torpabron V","Id":"82090","Latitude":58.19969,"Longitude":12.15406,"Altitude":17.0},{"Name":"Åseda","Id":"75100","Latitude":57.1462,"Longitude":15.3987,"Altitude":230.0},{"Name":"Åsele","Id":"147100","Latitude":64.159,"Longitude":17.3494,"Altitude":310.0},{"Name":"Åsele A","Id":"147090","Latitude":64.1661,"Longitude":17.3188,"Altitude":307.0},{"Name":"Åtorp","Id":"94050","Latitude":59.0966,"Longitude":14.3678,"Altitude":105.0},{"Name":"Åtvidaberg","Id":"85130","Latitude":58.2,"Longitude":15.9833,"Altitude":100.0},{"Name":"Ödebyn","Id":"82650","Latitude":58.7833,"Longitude":12.1833,"Altitude":150.0},{"Name":"Ödeshög D","Id":"84140","Latitude":58.2546,"Longitude":14.6584,"Altitude":120.0},{"Name":"Ödskölt","Id":"82660","Latitude":58.8458,"Longitude":12.1472,"Altitude":175.0},{"Name":"Öjebro","Id":"85220","Latitude":58.3833,"Longitude":15.2,"Altitude":85.0},{"Name":"Öjebyn","Id":"161800","Latitude":65.3566,"Longitude":21.389,"Altitude":5.0},{"Name":"Ökna","Id":"87520","Latitude":59.0833,"Longitude":16.3167,"Altitude":35.0},{"Name":"Ölands Norra Udde","Id":"77220","Latitude":57.3689,"Longitude":17.1008,"Altitude":4.0},{"Name":"Ölands Norra Udde A","Id":"77210","Latitude":57.3672,"Longitude":17.0986,"Altitude":2.0},{"Name":"Ölands Södra Grund","Id":"66040","Latitude":56.07,"Longitude":16.68,"Altitude":1.0},{"Name":"Ölands Södra Udde","Id":"66120","Latitude":56.1957,"Longitude":16.401,"Altitude":3.0},{"Name":"Ölands Södra Udde A","Id":"66110","Latitude":56.1977,"Longitude":16.4036,"Altitude":2.0},{"Name":"Ölands södra grund","Id":"66600","Latitude":56.0699,"Longitude":16.6799,"Altitude":23.0},{"Name":"Ölandsbron V","Id":"66400","Latitude":56.66694,"Longitude":16.4609,"Altitude":0.0},{"Name":"Ölvingstorp","Id":"66630","Latitude":56.6166,"Longitude":16.1166,"Altitude":15.0},{"Name":"Örberga","Id":"84260","Latitude":58.4274,"Longitude":14.826,"Altitude":105.0},{"Name":"Örby","Id":"72290","Latitude":57.4833,"Longitude":12.7,"Altitude":90.0},{"Name":"Örebro","Id":"95160","Latitude":59.2782,"Longitude":15.1574,"Altitude":35.0},{"Name":"Örebro","Id":"95620","Latitude":59.2448,"Longitude":15.2854,"Altitude":36.0},{"Name":"Örebro A","Id":"95130","Latitude":59.2289,"Longitude":15.0455,"Altitude":53.0},{"Name":"Örebro Aut","Id":"95170","Latitude":59.2671,"Longitude":15.2686,"Altitude":23.0},{"Name":"Örebro Flygplats","Id":"95140","Latitude":59.2334,"Longitude":15.05,"Altitude":57.0},{"Name":"Öregrund","Id":"108640","Latitude":60.3333,"Longitude":18.4333,"Altitude":7.0},{"Name":"Örja Aut","Id":"52510","Latitude":55.8798,"Longitude":12.8705,"Altitude":11.0},{"Name":"Örnsköldsviks Flygplats","Id":"138240","Latitude":63.4119,"Longitude":18.9797,"Altitude":108.0},{"Name":"Örskär A","Id":"108320","Latitude":60.5262,"Longitude":18.3766,"Altitude":8.0},{"Name":"Örtofta","Id":"53470","Latitude":55.7833,"Longitude":13.25,"Altitude":20.0},{"Name":"Östanå","Id":"98330","Latitude":59.5582,"Longitude":18.5833,"Altitude":10.0},{"Name":"Östergarn","Id":"78630","Latitude":57.45,"Longitude":18.9833,"Altitude":11.0},{"Name":"Östergarnsholm A","Id":"78280","Latitude":57.4413,"Longitude":18.9871,"Altitude":5.0},{"Name":"Östersund","Id":"134100","Latitude":63.1736,"Longitude":14.6786,"Altitude":345.0},{"Name":"Östmark-Lämbacken","Id":"102190","Latitude":60.306,"Longitude":12.6977,"Altitude":160.0},{"Name":"Östmark-Rännberg","Id":"102200","Latitude":60.3328,"Longitude":12.6775,"Altitude":198.0},{"Name":"Östmark-Röjdåsen","Id":"102210","Latitude":60.3548,"Longitude":12.6491,"Altitude":308.0},{"Name":"Östmark-Åsarna","Id":"102170","Latitude":60.2788,"Longitude":12.8538,"Altitude":135.0},{"Name":"Överkalix-Svartbyn","Id":"172790","Latitude":66.2646,"Longitude":22.8365,"Altitude":46.0},{"Name":"Överkalix-Svartbyn A","Id":"172770","Latitude":66.263,"Longitude":22.8472,"Altitude":61.0},{"Name":"Övertorneå","Id":"173810","Latitude":66.3862,"Longitude":23.622,"Altitude":75.0},{"Name":"Överäng","Id":"133470","Latitude":63.7788,"Longitude":13.0734,"Altitude":450.0},{"Name":"Övre Gränsö","Id":"86700","Latitude":58.35,"Longitude":16.8333035,"Altitude":5.0}]